ID,AGENTE,AUTOMOVILASIGNADO_ID,CADUCIDADASIGNACIONSERVICIO,CALIFICACIONCONDUCTORASIGNADO,CALIFICACION_USUARIO,CONDUCTORASIGNADO_ID,CONDUCTORESPOSTULADOS,COSTO,DELTACADUCIDADASIGNACION,DIRECCIONCOMPLEMENTARIA,DIRECCIONDESTINO,DIRECCIONPRINCIPAL,ESTADO,FECHA,FECHALEGIBLE,HORALANZAMIENTO,IDCIUDAD,IDLLAMADA,IDSERVICIO,INDICACIONES,LATITUD,LATITUDDESTINO,LONGITUD,LONGITUDDESTINO,MEDIOPAGO,NUMEROVALE,ORIGEN,PLACAAUTOMOVILASIGNADO,PROMEDIOCONDUCTORASIGNADO,PROPINA,TAMANOVEHICULO,TIPOASIGNACION,TIPOSERVICIO,USAPLANILLA,USUARIO,USUARIOAPLICACION_ID,USUARIOTELEFONICO_ID,IDCONDUCTORASIGNADO,PAGOEXITOSO,MOTIVORECHAZO,DIRECCIONMOSTRAR,DESCPAGO,BARRIOORIGEN,NUMEROCARROS,ANTERIOR,RUTA,CONDUCTOR_CERCANO,RECORRIDO_METROS,DISTANCIA,RECORRIDO_DISTANCIA,CALC_TARIFA,PRELIQUIDACION,TIEMPO,NUMERO_PASAJEROS,COSTO_INTERRUMPIDO
45691435,NULL,NULL,180,NULL,NULL,NULL,NULL,16500,60,NULL,"calle 84 sur # 14c - 51","kr 30 # 30 - 21 sur",ABANDONADO,1609459200187,"2021-01-01 00:00:00",NULL,11001,NULL,NULL,NULL,4.592188981349532,4.509430812000062,-74.11575805395842,-74.11739020099992,EFECTIVO,NULL,APP,NULL,NULL,0,NORMAL,TIEMPO_RUTA,NORMAL,0,8272274,NULL,NULL,NULL,NULL,NULL,"kr 30 # 30 sur - impar",NULL,"SAN JORGE CENTRAL",NULL,NULL,NULL,NULL,NULL,NULL,NULL,NULL,NULL,NULL,NULL,NULL
45691436,NULL,NULL,90,NULL,NULL,NULL,NULL,NULL,32,"LOS ANDES",NULL,"cl 59c # 2 35",ABANDONADO,1609459200553,"2021-01-01 00:00:00",NULL,76001,Sip/Cali_4444444,NULL,,3.46999254,NULL,-76.49444692,NULL,EFECTIVO,NULL,IVR,NULL,NULL,NULL,NORMAL,TIEMPO_RUTA,NORMAL,0,4418953,NULL,4418953,NULL,NULL,NULL,"cl 59 c # 2 - impar",NULL,"LOS ANDES B - LA RIVIERA",NULL,NULL,NULL,NULL,NULL,NULL,NULL,NULL,NULL,NULL,NULL,NULL
45691437,NULL,NULL,180,NULL,NULL,NULL,NULL,NULL,60,NULL,NULL,"cl 69 sur # 20d - 82",CANCELADO,1609459200699,"2021-01-01 00:00:00",NULL,11001,NULL,NULL,NULL,4.562834939717889,NULL,-74.15375657379627,NULL,EFECTIVO,NULL,APP,NULL,NULL,0,NORMAL,TIEMPO_RUTA,NORMAL,0,9030055,NULL,NULL,NULL,NULL,"USU|AppUsuario|Antes de asignacion","cl 69 sur # 20 d - par",NULL,"JUAN JOSE RONDON",NULL,NULL,NULL,NULL,NULL,NULL,NULL,NULL,NULL,NULL,NULL,NULL
45691438,NULL,NULL,180,NULL,NULL,NULL,NULL,18100,60,NULL,"Barrio la coruna","cl 18 # 99 - 2",CANCELADO,1609459200842,"2021-01-01 00:00:00",NULL,11001,NULL,NULL,NULL,4.6733628093868305,4.578805600004414,-74.14426021277905,-74.15251259757385,EFECTIVO,NULL,APP,NULL,NULL,0,NORMAL,TIEMPO_RUTA,NORMAL,0,9194488,NULL,NULL,NULL,NULL,"USU|AppUsuario|Ya no necesito el Taxi","cl 18 # 99 - par",NULL,"CENTRO FONTIBON",NULL,NULL,NULL,NULL,NULL,NULL,NULL,NULL,NULL,NULL,NULL,NULL
45691439,NULL,NULL,180,NULL,NULL,NULL,NULL,7500,60,NULL,"kr 85 # 48 - 12 sur","cl 57j sur # 77j - 3",CANCELADO,1609459201510,"2021-01-01 00:00:01",NULL,11001,NULL,NULL,NULL,4.605338620518885,4.6258891600000425,-74.17415175586939,-74.17437111699991,EFECTIVO,NULL,APP,NULL,NULL,0,NORMAL,TIEMPO_RUTA,NORMAL,0,9279492,NULL,NULL,NULL,NULL,"USU|AppUsuario|Antes de asignacion","cl 57 j sur # 77 j - impar",NULL,"LA UNIDAD",NULL,NULL,NULL,NULL,NULL,NULL,NULL,NULL,NULL,NULL,NULL,NULL
45691440,NULL,124911,180,0,5,158419928818697937838,...,24300,60,NULL,"CL 83 # KR 95D (BOGOTA)","kr 61d # 51b - 24 sur",CUMPLIDO,1609459201604,"2021-01-01 00:00:01",NULL,11001,NULL,NULL,NULL,4.587374264990348,4.71219,-74.14887467857096,-74.10611,EFECTIVO,NULL,APP,TSN762,4,0,NORMAL,TIEMPO_RUTA,NORMAL,0,3709741,NULL,NULL,158419928818697937838,NULL,NULL,"kr 61 d # 51 b sur - par","Pago definido/preliquidado por 24300","NUEVO MUZU",NULL,NULL,NULL,NULL,NULL,NULL,NULL,NULL,NULL,NULL,NULL,NULL
45691441,NULL,NULL,180,NULL,NULL,NULL,NULL,22100,60,NULL,"Panaderia y Cafeteria Mi Rubis de la 41","kr 65 # 11 - 30",ABANDONADO,1609459202818,"2021-01-01 00:00:02",NULL,11001,NULL,NULL,NULL,4.632370696383172,4.5464204,-74.11614932119846,-74.082498,EFECTIVO,NULL,APP,NULL,NULL,0,NORMAL,TIEMPO_RUTA,NORMAL,0,9069519,NULL,NULL,NULL,NULL,NULL,"kr 65 # 11 - par",NULL,"SALAZAR GOMEZ",NULL,NULL,NULL,NULL,NULL,NULL,NULL,NULL,NULL,NULL,NULL,NULL
45691442,NULL,NULL,180,NULL,NULL,NULL,NULL,8500,60,NULL,"Arborizadora Alta","dg 49c sur # 13j - 52",ABANDONADO,1609459203143,"2021-01-01 00:00:03",NULL,11001,NULL,NULL,NULL,4.566269309765327,4.571933899999999,-74.12514645606278,-74.1555581,EFECTIVO,NULL,APP,NULL,NULL,0,NORMAL,TIEMPO_RUTA,NORMAL,0,9397351,NULL,NULL,NULL,NULL,NULL,"dg 49 c sur # 13 j - par",NULL,"LA PLAYA",NULL,NULL,NULL,NULL,NULL,NULL,NULL,NULL,NULL,NULL,NULL,NULL
45691443,NULL,NULL,90,NULL,NULL,NULL,NULL,NULL,32,"SAN CARLOS",NULL,"cr 37 # 31 138",ABANDONADO,1609459203289,"2021-01-01 00:00:03",NULL,76001,Sip/Cali_4444444,NULL,,3.42013005,NULL,-76.51275895,NULL,EFECTIVO,NULL,IVR,NULL,NULL,NULL,NORMAL,TIEMPO_RUTA,NORMAL,0,4192966,NULL,4192966,NULL,NULL,NULL,"kr 37 # 31 - par",NULL,"SAN CARLOS",NULL,NULL,NULL,NULL,NULL,NULL,NULL,NULL,NULL,NULL,NULL,NULL
45691444,NULL,NULL,180,NULL,NULL,NULL,NULL,7500,60,NULL,"Centro Comercial Portal De La 80","kr 73 # 90 - 35",CANCELADO,1609459203460,"2021-01-01 00:00:03",NULL,11001,NULL,NULL,NULL,4.706061414393092,4.710666596775582,-74.08941406756638,-74.111772626646,EFECTIVO,NULL,APP,NULL,NULL,0,NORMAL,TIEMPO_RUTA,NORMAL,0,8121610,NULL,NULL,NULL,NULL,"USU|AppUsuario|Antes de asignacion","kr 73 # 90 - impar",NULL,"EL MORISCO",NULL,NULL,NULL,NULL,NULL,NULL,NULL,NULL,NULL,NULL,NULL,NULL
45691445,NULL,NULL,180,NULL,NULL,NULL,NULL,17700,60,NULL,"KR 10D Este # 17B - 26 Sur","cl 74 sur # 38a - 52",CANCELADO,1609459203471,"2021-01-01 00:00:03",NULL,11001,NULL,NULL,NULL,4.567439050578971,4.569843363277331,-74.16479822248219,-74.07918512821196,EFECTIVO,NULL,APP,NULL,NULL,0,NORMAL,TIEMPO_RUTA,NORMAL,0,8666405,NULL,NULL,NULL,NULL,"USU|AppUsuario|Antes de asignacion","cl 74 sur # 38 a - par",NULL,"ARBORIZADORA ALTA",NULL,NULL,NULL,NULL,NULL,NULL,NULL,NULL,NULL,NULL,NULL,NULL
45691446,150,121180,90,NULL,5,152769130951653789838,...,11200,60,NULL,"KR 54 # CL 107A (BOGOTA)","av  cr  28 39b 08",CUMPLIDO,1609459203688,"2021-01-01 00:00:03",NULL,11001,17089051,NULL,CASA,4.62974874,4.6968383,-74.07811903,-74.0639336,EFECTIVO,,RECEPCION,SMS194,5,NULL,NORMAL,TIEMPO_RUTA,,0,3590527,NULL,3590527,152769130951653789838,NULL,NULL,"ak 28 # 39 b - par","Pago definido/preliquidado por 11200","LA SOLEDAD",NULL,NULL,NULL,NULL,NULL,NULL,NULL,NULL,NULL,NULL,NULL,NULL
45691447,NULL,162747,180,NULL,NULL,155897391221252254377,...,8400,60,NULL,"KR 78A # 66 - 14 Sur","kr 77w # 45a - 26 sur",CANCELADO,1609459203884,"2021-01-01 00:00:03",NULL,11001,NULL,NULL,NULL,4.6098531903117985,4.600805142000071,-74.16267882655792,-74.18751951399992,EFECTIVO,NULL,APP,VED803,NULL,0,NORMAL,TIEMPO_RUTA,NORMAL,0,8747879,NULL,NULL,155897391221252254377,NULL,"CON|Usuario Se fue","kr 77 w # 45 a sur - par",NULL,JAQUELIN,NULL,NULL,NULL,NULL,NULL,NULL,NULL,NULL,NULL,NULL,NULL,NULL
45691448,NULL,NULL,180,NULL,NULL,NULL,NULL,9500,60,NULL,"Calle 38F Sur # 68D - 15","kr 82b # 41d - 27 sur",ABANDONADO,1609459203936,"2021-01-01 00:00:04",NULL,11001,NULL,NULL,NULL,4.6290338,4.602133123000045,-74.1668544,-74.13769804899995,EFECTIVO,NULL,APP,NULL,NULL,0,NORMAL,TIEMPO_RUTA,NORMAL,0,8858704,NULL,NULL,NULL,NULL,NULL,"kr 82 b # 41 d sur - impar",NULL,CONCORDIA,NULL,NULL,NULL,NULL,NULL,NULL,NULL,NULL,NULL,NULL,NULL,NULL
45691449,NULL,NULL,180,NULL,NULL,NULL,NULL,16000,60,NULL,"CL 17 Sur # 18 - 13","kr 81h # 51c - 3 sur",ABANDONADO,1609459204144,"2021-01-01 00:00:04",NULL,11001,NULL,NULL,NULL,4.621358346947849,4.585556423000071,-74.17552806437016,-74.10084140799995,EFECTIVO,NULL,APP,NULL,NULL,5000,NORMAL,TIEMPO_RUTA,NORMAL,0,9386500,NULL,NULL,NULL,NULL,NULL,"kr 81 h # 51 c sur - impar",NULL,"GRAN BRITALIA",NULL,NULL,NULL,NULL,NULL,NULL,NULL,NULL,NULL,NULL,NULL,NULL
45691450,NULL,NULL,180,NULL,NULL,NULL,NULL,13000,60,NULL,"Surtimayorista Zarzamo","ac 138 # 59a - 98",ABANDONADO,1609459204532,"2021-01-01 00:00:04",NULL,11001,NULL,NULL,NULL,4.729800398272845,4.6981,-74.06822863966227,-74.1094,EFECTIVO,NULL,APP,NULL,NULL,0,NORMAL,TIEMPO_RUTA,NORMAL,0,956934,NULL,NULL,NULL,NULL,NULL,"ac 138 # 59 a - par",NULL,ATENAS,NULL,NULL,NULL,NULL,NULL,NULL,NULL,NULL,NULL,NULL,NULL,NULL
45691451,NULL,NULL,180,NULL,NULL,NULL,NULL,24400,60,NULL,"Carrera 83 # 42F - 84 Sur","cl 72 # 10 - 70",CANCELADO,1609459204882,"2021-01-01 00:00:04",NULL,11001,NULL,NULL,NULL,4.657141422200895,4.628034765000052,-74.05788939446211,-74.16937352899993,EFECTIVO,NULL,APP,NULL,NULL,0,NORMAL,TIEMPO_RUTA,NORMAL,0,9083706,NULL,NULL,NULL,NULL,"USU|AppUsuario|Antes de asignacion","cl 72 # 10 - par",NULL,"LA PORCIUNCULA",NULL,NULL,NULL,NULL,NULL,NULL,NULL,NULL,NULL,NULL,NULL,NULL
45691452,NULL,NULL,90,NULL,NULL,NULL,NULL,NULL,32,"MARROQUIN 2",NULL,"dg 26i # 96 18",ABANDONADO,1609459205745,"2021-01-01 00:00:05",NULL,76001,Sip/Cali_4444444,NULL,,3.42913254,NULL,-76.47849827,NULL,EFECTIVO,NULL,IVR,NULL,NULL,NULL,NORMAL,TIEMPO_RUTA,NORMAL,0,4310344,NULL,4310344,NULL,NULL,NULL,"dg 26 i # 96 - par",NULL,"JOSE MANUEL MARROQUIN II ETAPA",NULL,NULL,NULL,NULL,NULL,NULL,NULL,NULL,NULL,NULL,NULL,NULL
45691453,NULL,NULL,90,NULL,NULL,NULL,NULL,NULL,32,"SAN ANTONIO",NULL,"cl 1 # 10 30",ABANDONADO,1609459206294,"2021-01-01 00:00:06",NULL,76001,Sip/Cali_4444444,NULL,NULL,3.44652116,NULL,-76.54101414,NULL,EFECTIVO,NULL,IVR,NULL,NULL,NULL,NORMAL,TIEMPO_RUTA,NORMAL,0,4925184,NULL,4925184,NULL,NULL,NULL,"cl 1 # 10 - par",NULL,"SAN ANTONIO",NULL,NULL,NULL,NULL,NULL,NULL,NULL,NULL,NULL,NULL,NULL,NULL
45691454,NULL,NULL,180,NULL,NULL,NULL,NULL,NULL,60,NULL,NULL,"kr 25 # 22 - 12",ABANDONADO,1609459206322,"2021-01-01 00:00:06",NULL,11001,NULL,NULL,NULL,4.617682624340187,NULL,-74.08330332487823,NULL,EFECTIVO,NULL,APP,NULL,NULL,5000,NORMAL,TIEMPO_RUTA,NORMAL,0,9397367,NULL,NULL,NULL,NULL,NULL,"kr 25 # 22 - par",NULL,"SAMPER MENDOZA",NULL,NULL,NULL,NULL,NULL,NULL,NULL,NULL,NULL,NULL,NULL,NULL
45691455,NULL,NULL,180,NULL,NULL,NULL,NULL,11300,60,NULL,"kr 90a # 45a - 5 sur","kr 77h # 65i - 5 sur",ABANDONADO,1609459206444,"2021-01-01 00:00:06",NULL,11001,NULL,NULL,NULL,4.597045890855429,4.6365995,-74.18594744056463,-74.1768775,EFECTIVO,NULL,APP,NULL,NULL,0,NORMAL,TIEMPO_RUTA,NORMAL,0,9338157,NULL,NULL,NULL,NULL,NULL,"kr 77 h # 65 i sur - impar",NULL,"ESTACION BOSA",NULL,NULL,NULL,NULL,NULL,NULL,NULL,NULL,NULL,NULL,NULL,NULL
45691456,NULL,NULL,180,NULL,NULL,NULL,NULL,5700,60,NULL,Trinitaria,"kr 103b # 152 - 97",ABANDONADO,1609459206961,"2021-01-01 00:00:07",NULL,11001,NULL,NULL,NULL,4.752547559141721,4.73865,-74.09158062189817,-74.09362,EFECTIVO,NULL,APP,NULL,NULL,0,NORMAL,TIEMPO_RUTA,NORMAL,0,8545271,NULL,NULL,NULL,NULL,NULL,"kr 103 b # 152 - impar",NULL,"TURINGIA II",NULL,NULL,NULL,NULL,NULL,NULL,NULL,NULL,NULL,NULL,NULL,NULL
45691457,NULL,NULL,180,NULL,NULL,NULL,NULL,24800,60,NULL,"KR 14 Este # 42C - 32 Sur","kr 29c # 74a - 24",CANCELADO,1609459207009,"2021-01-01 00:00:07",NULL,11001,NULL,NULL,NULL,4.6690671506749,4.544339161000039,-74.07129038125277,-74.08301859199992,EFECTIVO,NULL,APP,NULL,NULL,0,NORMAL,TIEMPO_RUTA,NORMAL,0,8922083,NULL,NULL,NULL,NULL,"USU|AppUsuario|Antes de asignacion","kr 29 c # 74 a - par",NULL,"ONCE DE NOVIEMBRE",NULL,NULL,NULL,NULL,NULL,NULL,NULL,NULL,NULL,NULL,NULL,NULL
45691458,NULL,NULL,180,NULL,NULL,NULL,NULL,29800,60,NULL,"Colegio Cafam Los Naranjos","kr 114 # 148 - 30",ABANDONADO,1609459207195,"2021-01-01 00:00:07",NULL,11001,NULL,NULL,NULL,4.752084129848072,4.60837,-74.10129055380821,-74.19494,EFECTIVO,NULL,APP,NULL,NULL,0,NORMAL,TIEMPO_RUTA,NORMAL,0,4954099,NULL,NULL,NULL,NULL,NULL,"kr 114 # 148 - par",NULL,TIBABUYES,NULL,NULL,NULL,NULL,NULL,NULL,NULL,NULL,NULL,NULL,NULL,NULL
45691459,NULL,NULL,90,NULL,NULL,NULL,NULL,NULL,60,,NULL,"cra. 64 a 4 65",ABANDONADO,1609459207395,"2021-01-01 00:00:07",NULL,11001,17089075,NULL,CASA,4.62341356,NULL,-74.12138843,NULL,EFECTIVO,NULL,IVR,NULL,NULL,NULL,NORMAL,TIEMPO_RUTA,NORMAL,0,8378557,NULL,8378557,NULL,NULL,NULL,"kr 64 a # 4 - impar",NULL,"LA PRADERA",NULL,NULL,NULL,NULL,NULL,NULL,NULL,NULL,NULL,NULL,NULL,NULL
45691460,NULL,NULL,180,NULL,NULL,NULL,NULL,8300,60,NULL,"Carrera 73 48-36","kr 57 bis # 57b - 63",ABANDONADO,1609459207403,"2021-01-01 00:00:07",NULL,11001,NULL,NULL,NULL,4.652197371824617,4.66904,-74.08837739378214,-74.11151,EFECTIVO,NULL,APP,NULL,NULL,0,NORMAL,TIEMPO_RUTA,NORMAL,0,9382341,NULL,NULL,NULL,NULL,NULL,"kr 57 bis # 57 b - impar",NULL,"PAULO VI",NULL,NULL,NULL,NULL,NULL,NULL,NULL,NULL,NULL,NULL,NULL,NULL
45691461,NULL,NULL,180,NULL,NULL,NULL,NULL,NULL,60,NULL,NULL,"ak 60 # 22 - 75",ABANDONADO,1609459208917,"2021-01-01 00:00:09",NULL,11001,NULL,NULL,NULL,4.641320004669087,NULL,-74.1050023958087,NULL,EFECTIVO,NULL,APP,NULL,NULL,3000,NORMAL,TIEMPO_RUTA,NORMAL,0,8403054,NULL,NULL,NULL,NULL,NULL,"ak 60 # 22 - impar",NULL,"CIUDAD SALITRE SUR-ORIENTAL",NULL,NULL,NULL,NULL,NULL,NULL,NULL,NULL,NULL,NULL,NULL,NULL
45691462,NULL,173653,180,5,5,161366242269426531177,...,9000,32,NULL,"KR 1C # CL 64A (CALI)","av 2 # 75 h 2 norte - 40",CUMPLIDO,1609459209318,"2021-01-01 00:00:09",NULL,76001,NULL,NULL,NULL,3.4962204193909563,3.47711,-76.49899832904339,-76.49055,EFECTIVO,NULL,APP,EQM868,4,0,NORMAL,TIEMPO_RUTA,NORMAL,0,4458259,NULL,NULL,161366242269426531177,NULL,NULL,"av 2 # 75 h2 norte - par","Pago definido/preliquidado por 9000","BRISAS DE LOS ALAMOS",NULL,NULL,NULL,NULL,NULL,NULL,NULL,NULL,NULL,NULL,NULL,NULL
45691463,NULL,NULL,180,NULL,NULL,NULL,NULL,19800,60,NULL," carrera 90a","kr 18 # 33 - 12",ABANDONADO,1609459209568,"2021-01-01 00:00:09",NULL,11001,NULL,NULL,NULL,4.622176,4.636001499999999,-74.0732016,-74.1786528,TARJETA,NULL,APP,NULL,NULL,0,NORMAL,TIEMPO_RUTA,NORMAL,0,9120963,NULL,NULL,NULL,NULL,NULL,"kr 18 # 33 - par",NULL,TEUSAQUILLO,NULL,NULL,NULL,NULL,NULL,NULL,NULL,NULL,NULL,NULL,NULL,NULL
45691464,NULL,NULL,180,NULL,NULL,NULL,NULL,22400,60,NULL,"calle 71 # 69m - 38","cl 62 sur # 81d - 89",ABANDONADO,1609459210033,"2021-01-01 00:00:10",NULL,11001,NULL,NULL,NULL,4.61294148551131,4.682341690000044,-74.18674305081367,-74.09187092199994,EFECTIVO,NULL,APP,NULL,NULL,0,NORMAL,TIEMPO_RUTA,NORMAL,0,8843196,NULL,NULL,NULL,NULL,NULL,"cl 62 sur # 81 d - impar",NULL,BOSA,NULL,NULL,NULL,NULL,NULL,NULL,NULL,NULL,NULL,NULL,NULL,NULL
45691465,NULL,NULL,90,NULL,NULL,NULL,NULL,NULL,60,,NULL,"cl. 31 d sur # 1 - 37 este",ABANDONADO,1609459210632,"2021-01-01 00:00:10",NULL,11001,17089077,NULL,CASA,4.56042446,NULL,-74.0935225,NULL,EFECTIVO,NULL,IVR,NULL,NULL,NULL,NORMAL,TIEMPO_RUTA,NORMAL,0,6978510,NULL,6978510,NULL,NULL,NULL,"cl 31 d sur # 1 este - impar",NULL,"BELLO HORIZONTE",NULL,NULL,NULL,NULL,NULL,NULL,NULL,NULL,NULL,NULL,NULL,NULL
45691466,NULL,NULL,180,NULL,NULL,NULL,NULL,NULL,60,NULL,NULL,"cl 39g sur # 9 - 40",ABANDONADO,1609459210834,"2021-01-01 00:00:10",NULL,11001,NULL,NULL,NULL,4.562432212297809,NULL,-74.10663787275554,NULL,EFECTIVO,NULL,APP,NULL,NULL,0,NORMAL,TIEMPO_RUTA,NORMAL,0,8398210,NULL,NULL,NULL,NULL,NULL,"cl 39 g sur # 9 - par",NULL,MADRID,NULL,NULL,NULL,NULL,NULL,NULL,NULL,NULL,NULL,NULL,NULL,NULL
45691467,NULL,131917,180,5,5,148501030508561066749,...,12400,60,NULL,"TV 85G # CL 24BIS (BOGOTA)","cl 79 # 61 - 36",CUMPLIDO,1609459211014,"2021-01-01 00:00:11",NULL,11001,NULL,NULL,NULL,4.678080819138085,4.671783226391555,-74.07728746533394,-74.12463616579771,EFECTIVO,NULL,APP,WNS121,4,0,NORMAL,TIEMPO_RUTA,NORMAL,0,8391834,NULL,NULL,148501030508561066749,NULL,NULL,"cl 79 # 61 - par","Pago definido/preliquidado por 12400","LA LIBERTAD",NULL,NULL,NULL,NULL,NULL,NULL,NULL,NULL,NULL,NULL,NULL,NULL
45691468,NULL,160921,180,5,5,153002676497739764742,...,23700,60,NULL,"KR 93 # CL 42A SUR (BOGOTA)","cl 94c # 56 - 65",CUMPLIDO,1609459211017,"2021-01-01 00:00:11",NULL,11001,NULL,NULL,NULL,4.6841604853663465,4.6416128,-74.06392637640238,-74.17428819999999,EFECTIVO,NULL,APP,WCM788,4,0,NORMAL,TIEMPO_RUTA,NORMAL,0,4534279,NULL,NULL,153002676497739764742,NULL,NULL,"cl 94 c # 56 - impar","Pago definido/preliquidado por 23700",RIONEGRO,NULL,NULL,NULL,NULL,NULL,NULL,NULL,NULL,NULL,NULL,NULL,NULL
45691469,NULL,NULL,180,NULL,NULL,NULL,NULL,21600,60,NULL,"CL 57A Sur # 93C - 60","cl 87 # 87a - 12",ABANDONADO,1609459211543,"2021-01-01 00:00:11",NULL,11001,NULL,NULL,NULL,4.709253836184082,4.633623873710895,-74.09798204898834,-74.19211719185114,EFECTIVO,NULL,APP,NULL,NULL,0,NORMAL,TIEMPO_RUTA,NORMAL,0,9090784,NULL,NULL,NULL,NULL,NULL,"cl 87 # 87 a - par",NULL,"LOS CEREZOS",NULL,NULL,NULL,NULL,NULL,NULL,NULL,NULL,NULL,NULL,NULL,NULL
45691470,NULL,NULL,180,NULL,NULL,NULL,NULL,18100,60,NULL,"Calle 31 Sur 5A-27","cl 42b sur # 81l - 15",ABANDONADO,1609459211547,"2021-01-01 00:00:11",NULL,11001,NULL,NULL,NULL,4.627832839157236,4.56561,-74.16721355170012,-74.09856,EFECTIVO,NULL,APP,NULL,NULL,0,NORMAL,TIEMPO_RUTA,NORMAL,0,9397387,NULL,NULL,NULL,NULL,NULL,"cl 42 b sur # 81 l - impar",NULL,"EL AMPARO",NULL,NULL,NULL,NULL,NULL,NULL,NULL,NULL,NULL,NULL,NULL,NULL
45691471,NULL,NULL,180,NULL,NULL,NULL,NULL,18100,60,NULL,"Calle 78 Sur # 18D - 84","kr 81j # 57d - 2 sur",ABANDONADO,1609459211724,"2021-01-01 00:00:11",NULL,11001,NULL,NULL,NULL,4.6161102,4.540018590000045,-74.182788,-74.14627607599994,EFECTIVO,NULL,APP,NULL,NULL,0,NORMAL,TIEMPO_RUTA,NORMAL,0,9027260,NULL,NULL,NULL,NULL,NULL,"kr 81 j # 57 d sur - par",NULL,"LAS VEGAS DE SANTA ANA",NULL,NULL,NULL,NULL,NULL,NULL,NULL,NULL,NULL,NULL,NULL,NULL
45691472,NULL,NULL,180,NULL,NULL,NULL,NULL,5800,60,NULL,"kr 81j # 57c - 20 sur","cl 67 sur # 86g - 18",ABANDONADO,1609459211989,"2021-01-01 00:00:12",NULL,11001,NULL,NULL,NULL,4.619985174871092,4.616361998000059,-74.19205080717802,-74.1817311719999,EFECTIVO,NULL,APP,NULL,NULL,0,NORMAL,TIEMPO_RUTA,NORMAL,0,9337948,NULL,NULL,NULL,NULL,NULL,"cl 67 sur # 86 g - par",NULL,"SAN PEDRO",NULL,NULL,NULL,NULL,NULL,NULL,NULL,NULL,NULL,NULL,NULL,NULL
45691473,NULL,NULL,180,NULL,NULL,NULL,NULL,18200,60,NULL,"CL 7A BIS # 79C - 23","kr 120a # 77 - 20",ABANDONADO,1609459213165,"2021-01-01 00:00:13",NULL,11001,NULL,NULL,NULL,4.721073421341887,4.637482979000083,-74.13268178701401,-74.14691379599992,EFECTIVO,NULL,APP,NULL,NULL,0,NORMAL,TIEMPO_RUTA,NORMAL,0,8903811,NULL,NULL,NULL,NULL,NULL,"kr 120 a # 77 - par",NULL,"EL DORADO",NULL,NULL,NULL,NULL,NULL,NULL,NULL,NULL,NULL,NULL,NULL,NULL
45691474,621,NULL,90,NULL,NULL,NULL,NULL,NULL,60,NULL,NULL,"cra. 86 a 42 g 48 sur",ABANDONADO,1609459213287,"2021-01-01 00:00:13",NULL,11001,,NULL,"CASA PISO 2",4.62932765,NULL,-74.17047088,NULL,EFECTIVO,,RECEPCION,NULL,NULL,NULL,NORMAL,TIEMPO_RUTA,,0,2507825,NULL,2507825,NULL,NULL,NULL,"kr 86 a # 42 g sur - par",NULL,"TINDALITO II",NULL,NULL,NULL,NULL,NULL,NULL,NULL,NULL,NULL,NULL,NULL,NULL
45691475,NULL,NULL,180,NULL,NULL,NULL,NULL,4800,60,NULL,"CL 43 Sur # 6 - 72 Este","kr 3a este # 40 - 3 sur",ABANDONADO,1609459213477,"2021-01-01 00:00:13",NULL,11001,NULL,NULL,NULL,4.551322193921747,4.547122387157806,-74.09430842846632,-74.09174725413322,EFECTIVO,NULL,APP,NULL,NULL,0,NORMAL,TIEMPO_RUTA,NORMAL,0,9161722,NULL,NULL,NULL,NULL,NULL,"kr 3 a este # 40 sur - impar",NULL,"LA VICTORIA",NULL,NULL,NULL,NULL,NULL,NULL,NULL,NULL,NULL,NULL,NULL,NULL
45691476,NULL,NULL,180,NULL,NULL,NULL,NULL,6100,60,NULL,"CL 54C Sur # 87B - 21","kr 100 # 52 - 98 sur",ABANDONADO,1609459214282,"2021-01-01 00:00:14",NULL,11001,NULL,NULL,NULL,4.642777013504627,4.625178418132317,-74.18972566723824,-74.18324612081051,EFECTIVO,NULL,APP,NULL,NULL,0,NORMAL,TIEMPO_RUTA,NORMAL,0,9374370,NULL,NULL,NULL,NULL,NULL,"kr 100 # 52 sur - par",NULL,"PARCELA EL PORVENIR",NULL,NULL,NULL,NULL,NULL,NULL,NULL,NULL,NULL,NULL,NULL,NULL
45691477,NULL,NULL,180,NULL,NULL,NULL,NULL,19700,60,NULL,"Carrera 116B 70A-17","cl 93a # 13a - 6",ABANDONADO,1609459214632,"2021-01-01 00:00:14",NULL,11001,NULL,NULL,NULL,4.677449,4.71443,-74.049892,-74.13476,EFECTIVO,NULL,APP,NULL,NULL,0,NORMAL,TIEMPO_RUTA,NORMAL,0,8918396,NULL,NULL,NULL,NULL,NULL,"cl 93 a # 13 a - par",NULL,"CHICO NORTE",NULL,NULL,NULL,NULL,NULL,NULL,NULL,NULL,NULL,NULL,NULL,NULL
45691478,NULL,NULL,180,NULL,NULL,NULL,NULL,27300,60,NULL,"Colegio La Belleza - Los Libertadores Sede a","kr 88f bis a # 59b - 16 sur",ABANDONADO,1609459214832,"2021-01-01 00:00:14",NULL,11001,NULL,NULL,NULL,4.627137738050341,4.53044,-74.1916699334979,-74.09219,EFECTIVO,NULL,APP,NULL,NULL,3000,NORMAL,TIEMPO_RUTA,NORMAL,0,9396877,NULL,NULL,NULL,NULL,NULL,"kr 88 f bis a # 59 b sur - par",NULL,"LA LIBERTAD",NULL,NULL,NULL,NULL,NULL,NULL,NULL,NULL,NULL,NULL,NULL,NULL
45691479,NULL,NULL,180,NULL,NULL,NULL,NULL,15400,60,NULL,"calle 47a sur #80f-3","cl 23f # 108 - 67",ABANDONADO,1609459215238,"2021-01-01 00:00:15",NULL,11001,NULL,NULL,NULL,4.6860408,4.62039,-74.1420508,-74.1697595,EFECTIVO,NULL,APP,NULL,NULL,0,NORMAL,TIEMPO_RUTA,NORMAL,0,8959264,NULL,NULL,NULL,NULL,NULL,"cl 23 f # 108 - impar",NULL,VERSALLES,NULL,NULL,NULL,NULL,NULL,NULL,NULL,NULL,NULL,NULL,NULL,NULL
45691480,NULL,NULL,180,NULL,NULL,NULL,NULL,15700,60,NULL,"Carrera 23D & Calle 33 S","kr 4 este # 46a - 13",ABANDONADO,1609459215606,"2021-01-01 00:00:15",NULL,11001,NULL,NULL,NULL,4.63219224375104,4.58154,-74.05779551714659,-74.11677,EFECTIVO,NULL,APP,NULL,NULL,5000,NORMAL,TIEMPO_RUTA,NORMAL,0,9397371,NULL,NULL,NULL,NULL,NULL,"kr 4 este # 46 a - impar",NULL,"PARDO RUBIO NOROCCIDENTAL",NULL,NULL,NULL,NULL,NULL,NULL,NULL,NULL,NULL,NULL,NULL,NULL
45691481,174,NULL,90,NULL,NULL,NULL,NULL,NULL,60,"CALLE 100",NULL,"cra. 63 98b-51",ABANDONADO,1609459216911,"2021-01-01 00:00:17",NULL,11001,17089050,NULL,"AP 604",4.68883944,NULL,-74.06819869,NULL,EFECTIVO,,RECEPCION,NULL,NULL,NULL,NORMAL,TIEMPO_RUTA,,0,3249469,NULL,3249469,NULL,NULL,NULL,"kr 63 # 98 b - impar",NULL,"LOS ANDES",NULL,NULL,NULL,NULL,NULL,NULL,NULL,NULL,NULL,NULL,NULL,NULL
45691482,NULL,NULL,180,NULL,NULL,NULL,NULL,25000,60,NULL,"calle 58q sur # 78 - 39","kr 118 # 76a - 11",ABANDONADO,1609459218292,"2021-01-01 00:00:18",NULL,11001,NULL,NULL,NULL,4.7203446646810425,4.602468080000051,-74.13047667592762,-74.17859310599994,EFECTIVO,NULL,APP,NULL,NULL,0,NORMAL,TIEMPO_RUTA,NORMAL,0,9045255,NULL,NULL,NULL,NULL,NULL,"kr 118 # 76 a - impar",NULL,"CENTRO ENGATIVA",NULL,NULL,NULL,NULL,NULL,NULL,NULL,NULL,NULL,NULL,NULL,NULL
45691483,NULL,NULL,180,NULL,NULL,NULL,NULL,6500,60,NULL,"Barrio Villemar","kr 83 # 13c - 42",CANCELADO,1609459218343,"2021-01-01 00:00:18",NULL,11001,NULL,NULL,NULL,4.654355782408128,4.670606841467187,-74.13976114243268,-74.14007668605154,EFECTIVO,NULL,APP,NULL,NULL,0,NORMAL,TIEMPO_RUTA,NORMAL,0,4533026,NULL,NULL,NULL,NULL,"USU|AppUsuario|Antes de asignacion","kr 83 # 13 c - par",NULL,ANDALUCIA,NULL,NULL,NULL,NULL,NULL,NULL,NULL,NULL,NULL,NULL,NULL,NULL
45691484,NULL,NULL,180,NULL,NULL,NULL,NULL,12100,60,NULL,"Barrio tintala","kr 64a # 2c - 56",ABANDONADO,1609459218343,"2021-01-01 00:00:18",NULL,11001,NULL,NULL,NULL,4.62153847324097,4.649429656106338,-74.12234656512739,-74.15592088352861,EFECTIVO,NULL,APP,NULL,NULL,0,NORMAL,TIEMPO_RUTA,NORMAL,0,9397331,NULL,NULL,NULL,NULL,NULL,"kr 64 a # 2 c - par",NULL,GALAN,NULL,NULL,NULL,NULL,NULL,NULL,NULL,NULL,NULL,NULL,NULL,NULL
45691485,NULL,129935,180,NULL,NULL,153634520381445842525,...,12900,60,NULL,"CL 16J # 96C - 24","kr 94h # 83b - 3",CANCELADO,1609459218666,"2021-01-01 00:00:18",NULL,11001,NULL,NULL,NULL,4.710099554846552,4.668064272000038,-74.10356473177671,-74.1427729639999,EFECTIVO,NULL,APP,WLU983,NULL,0,NORMAL,TIEMPO_RUTA,NORMAL,0,9186270,NULL,NULL,153634520381445842525,NULL,"CON|Usuario Se fue","kr 94 h # 83 b - impar",NULL,"CIUDAD QUIRIGUA",NULL,NULL,NULL,NULL,NULL,NULL,NULL,NULL,NULL,NULL,NULL,NULL
45691486,NULL,144170,90,NULL,5,149012071410812852353,...,12900,60,,"KR 7BBIS # CL 129 (BOGOTA)","tv. 26 53 c 82",CUMPLIDO,1609459218704,"2021-01-01 00:00:18",NULL,11001,17089074,NULL,CASA,4.64471296,4.7079778,-74.07413996,-74.0298336,EFECTIVO,NULL,IVR,WEU852,5,NULL,NORMAL,TIEMPO_RUTA,NORMAL,0,9397344,NULL,9397344,149012071410812852353,NULL,NULL,"tv 26 # 53 c - par","Pago definido/preliquidado por 12900","SAN LUIS",NULL,NULL,NULL,NULL,NULL,NULL,NULL,NULL,NULL,NULL,NULL,NULL
45691487,NULL,NULL,180,NULL,NULL,NULL,NULL,18100,60,NULL,"CL 31 Sur # 5A - 27","cl 42b sur # 81l - 13",ABANDONADO,1609459218807,"2021-01-01 00:00:18",NULL,11001,NULL,NULL,NULL,4.6278201402008206,4.565613401000064,-74.16722226887941,-74.09855791099994,EFECTIVO,NULL,APP,NULL,NULL,0,NORMAL,TIEMPO_RUTA,NORMAL,0,8877274,NULL,NULL,NULL,NULL,NULL,"cl 42 b sur # 81 l - impar",NULL,"EL AMPARO",NULL,NULL,NULL,NULL,NULL,NULL,NULL,NULL,NULL,NULL,NULL,NULL
45691488,NULL,NULL,180,NULL,NULL,NULL,NULL,8600,60,NULL,"DG 64 BIS # 19 - 5","tv 50 # 77b - 20 sur",ABANDONADO,1609459218984,"2021-01-01 00:00:19",NULL,11001,NULL,NULL,NULL,4.571116703266828,4.558254528643429,-74.16892010718583,-74.14507493376732,EFECTIVO,NULL,APP,NULL,NULL,0,NORMAL,TIEMPO_RUTA,NORMAL,0,9261619,NULL,NULL,NULL,NULL,NULL,"tv 50 # 77 b sur - par",NULL,BRISAS,NULL,NULL,NULL,NULL,NULL,NULL,NULL,NULL,NULL,NULL,NULL,NULL
45691489,NULL,NULL,180,NULL,NULL,NULL,NULL,9400,60,NULL,"CL 73A BIS A Sur # 17B - 7","dg 46 sur # 13a - 22",ABANDONADO,1609459219662,"2021-01-01 00:00:19",NULL,11001,NULL,NULL,NULL,4.567923656928597,4.543969340904794,-74.11874435842037,-74.1382084786892,EFECTIVO,NULL,APP,NULL,NULL,0,NORMAL,TIEMPO_RUTA,NORMAL,0,8936135,NULL,NULL,NULL,NULL,NULL,"dg 46 sur # 13 a - par",NULL,"MARCO FIDEL SUAREZ",NULL,NULL,NULL,NULL,NULL,NULL,NULL,NULL,NULL,NULL,NULL,NULL
45691490,NULL,NULL,22,NULL,NULL,NULL,NULL,NULL,60,NULL,"KR 63 # 19 - 18 Sur","cl 38 # 1 - 116",CANCELADO,1609459220038,"2021-01-01 00:00:20",NULL,25754,NULL,NULL,NULL,4.58620911883998,4.612342282445474,-74.19553231447935,-74.12732239812613,EFECTIVO,NULL,APP,NULL,NULL,0,NORMAL,TIEMPO_RUTA,NORMAL,0,8777901,NULL,NULL,NULL,NULL,"USU|AppUsuario|Antes de asignacion","cl 38 # 1 - par",NULL,"URBANIZACION TERREROS",NULL,NULL,NULL,NULL,NULL,NULL,NULL,NULL,NULL,NULL,NULL,NULL
45691491,NULL,NULL,180,NULL,NULL,NULL,NULL,12400,60,NULL,"Biblioteca Pública El Tintal Manuel Zapata Olivella","cl 1 # 52 - 84",ABANDONADO,1609459220261,"2021-01-01 00:00:20",NULL,11001,NULL,NULL,NULL,4.61069906653603,4.64266,-74.12035435438156,-74.15417,EFECTIVO,NULL,APP,NULL,NULL,4000,NORMAL,TIEMPO_RUTA,NORMAL,0,8671892,NULL,NULL,NULL,NULL,NULL,"cl 1 # 52 - par",NULL,PONDEROSA,NULL,NULL,NULL,NULL,NULL,NULL,NULL,NULL,NULL,NULL,NULL,NULL
45691492,NULL,NULL,180,NULL,NULL,NULL,NULL,6700,60,NULL,"AK 50 # 4 - 34","cl 27 sur # 51a - 3",ABANDONADO,1609459221053,"2021-01-01 00:00:21",NULL,11001,NULL,NULL,NULL,4.60343805866495,4.616778311448821,-74.12410777062178,-74.11375377327204,EFECTIVO,NULL,APP,NULL,NULL,0,NORMAL,TIEMPO_RUTA,PREMIUM,0,9146810,NULL,NULL,NULL,NULL,NULL,"cl 27 sur # 51 a - impar",NULL,ALCALA,NULL,NULL,NULL,NULL,NULL,NULL,NULL,NULL,NULL,NULL,NULL,NULL
45691493,NULL,NULL,180,NULL,NULL,NULL,NULL,21800,60,NULL,"Carrera 17 # 29 - 32","cl 129f # 123 - 62",ABANDONADO,1609459221303,"2021-01-01 00:00:21",NULL,11001,NULL,NULL,NULL,4.734873876245428,4.619102274564361,-74.1088942810893,-74.07358147866707,EFECTIVO,NULL,APP,NULL,NULL,0,NORMAL,TIEMPO_RUTA,NORMAL,0,8436109,NULL,NULL,NULL,NULL,NULL,"cl 129 f # 123 - par",NULL,"NUEVA TIBABUYES",NULL,NULL,NULL,NULL,NULL,NULL,NULL,NULL,NULL,NULL,NULL,NULL
45691494,NULL,NULL,180,NULL,NULL,NULL,NULL,18800,60,NULL,"Colegio Distrital San Cristóbal - Sede a","kr 78c # 13 - 51",ABANDONADO,1609459221326,"2021-01-01 00:00:21",NULL,11001,NULL,NULL,NULL,4.649627293000037,4.57019,-74.13374298199994,-74.07987,EFECTIVO,NULL,APP,NULL,NULL,0,NORMAL,TIEMPO_RUTA,NORMAL,0,9231783,NULL,NULL,NULL,NULL,NULL,"kr 78 c # 13 - impar",NULL,"VISION DE COLOMBIA",NULL,NULL,NULL,NULL,NULL,NULL,NULL,NULL,NULL,NULL,NULL,NULL
45691495,NULL,NULL,180,NULL,NULL,NULL,NULL,22400,60,NULL,"KR 92 # 128 - 68","kr 83a # 65 - 61 sur",CANCELADO,1609459221407,"2021-01-01 00:00:21",NULL,11001,NULL,NULL,NULL,4.615541145382373,4.721605203000081,-74.19099368155003,-74.09149212299991,EFECTIVO,NULL,APP,NULL,NULL,0,NORMAL,TIEMPO_RUTA,NORMAL,0,8409535,NULL,NULL,NULL,NULL,USU|DESCONOCIDO,"kr 83 a # 65 sur - impar",NULL,ISLANDIA,NULL,NULL,NULL,NULL,NULL,NULL,NULL,NULL,NULL,NULL,NULL,NULL
45691496,NULL,NULL,90,NULL,NULL,NULL,NULL,NULL,60,NULL,NULL,"cra. 110 141a-33",ABANDONADO,1609459221556,"2021-01-01 00:00:21",NULL,11001,17089082,NULL,"AP   302 BL 18",4.74551962,NULL,-74.1006732,NULL,EFECTIVO,NULL,IVR,NULL,NULL,NULL,NORMAL,TIEMPO_RUTA,NORMAL,0,3725787,NULL,3725787,NULL,NULL,NULL,"kr 110 # 141 a - impar",NULL,"PUERTA DEL SOL",NULL,NULL,NULL,NULL,NULL,NULL,NULL,NULL,NULL,NULL,NULL,NULL
45691497,NULL,NULL,180,NULL,NULL,NULL,NULL,26600,60,NULL,"Calle 7B 70B-28","cl 188 # 15 - 43",ABANDONADO,1609459221541,"2021-01-01 00:00:21",NULL,11001,NULL,NULL,NULL,4.764833834715862,4.6328,-74.0354061126709,-74.13191,EFECTIVO,NULL,APP,NULL,NULL,0,NORMAL,TIEMPO_RUTA,NORMAL,0,2136738,NULL,NULL,NULL,NULL,NULL,"cl 188 # 15 - impar",NULL,"EL VERBENAL",NULL,NULL,NULL,NULL,NULL,NULL,NULL,NULL,NULL,NULL,NULL,NULL
45691498,NULL,NULL,180,NULL,NULL,NULL,NULL,20600,60,NULL,"Cai Roma","kr 118b # 69c - 30",ABANDONADO,1609459222079,"2021-01-01 00:00:22",NULL,11001,NULL,NULL,NULL,4.715372993482978,4.613436838999974,-74.13620755076408,-74.17560249799999,EFECTIVO,NULL,APP,NULL,NULL,0,NORMAL,TIEMPO_RUTA,NORMAL,0,9168326,NULL,NULL,NULL,NULL,NULL,"kr 118 b # 69 c - par",NULL,"CENTRO ENGATIVA",NULL,NULL,NULL,NULL,NULL,NULL,NULL,NULL,NULL,NULL,NULL,NULL
45691499,NULL,NULL,180,NULL,NULL,NULL,NULL,13500,60,NULL,"KR 110A BIS # 20C - 28","cl 24a # 56 - 35",ABANDONADO,1609459222334,"2021-01-01 00:00:22",NULL,11001,NULL,NULL,NULL,4.642514016948803,4.6826206700000625,-74.09964166581629,-74.14772115799991,EFECTIVO,NULL,APP,NULL,NULL,0,NORMAL,TIEMPO_RUTA,NORMAL,0,8444438,NULL,NULL,NULL,NULL,NULL,"cl 24 a # 56 - impar",NULL,"CIUDAD SALITRE NOR-ORIENTAL",NULL,NULL,NULL,NULL,NULL,NULL,NULL,NULL,NULL,NULL,NULL,NULL
45691500,NULL,124586,180,5,5,152167595649843472686,...,15700,60,NULL,"KR 46 # CL 57A (BOGOTA)","cl. 141 #7b-63, bogota, colombia",CUMPLIDO,1609459222844,"2021-01-01 00:00:22",NULL,11001,NULL,NULL,NULL,4.718068500000001,4.6479199,-74.03157999999999,-74.0843831,EFECTIVO,NULL,APP,VFE471,4,0,NORMAL,TIEMPO_RUTA,NORMAL,0,8293401,NULL,NULL,152167595649843472686,NULL,NULL,"cl 141 # 7 b - impar","Pago definido/preliquidado por 15700",CEDRITOS,NULL,NULL,NULL,NULL,NULL,NULL,NULL,NULL,NULL,NULL,NULL,NULL
45691501,NULL,NULL,180,NULL,NULL,NULL,NULL,18600,32,NULL,"Pizzamania Flora","cl 99 # 26 i 2 - 15",ABANDONADO,1609459222942,"2021-01-01 00:00:23",NULL,76001,NULL,NULL,NULL,3.423920746596009,3.46859,-76.47579655051231,-76.52262,EFECTIVO,NULL,APP,NULL,NULL,0,NORMAL,TIEMPO_RUTA,NORMAL,0,9397289,NULL,NULL,NULL,NULL,NULL,"cl 99 # 26 i2 - impar",NULL,"PROMOCIONES POPULARES B",NULL,NULL,NULL,NULL,NULL,NULL,NULL,NULL,NULL,NULL,NULL,NULL
45691502,NULL,NULL,180,NULL,NULL,NULL,NULL,23300,60,NULL,"Centro Comercial Metrópolis","cl 58a sur # 17a - 2",ABANDONADO,1609459223244,"2021-01-01 00:00:23",NULL,11001,NULL,NULL,NULL,4.562603663915889,4.68075,-74.13322493433952,-74.08242,EFECTIVO,NULL,APP,NULL,NULL,0,NORMAL,TIEMPO_RUTA,NORMAL,0,3474093,NULL,NULL,NULL,NULL,NULL,"cl 58 a sur # 17 a - par",NULL,"SAN BENITO",NULL,NULL,NULL,NULL,NULL,NULL,NULL,NULL,NULL,NULL,NULL,NULL
45691503,NULL,NULL,180,NULL,NULL,NULL,NULL,21800,60,NULL,"CL 156B # 100 - 66","cl 69b # 121 - 70",CANCELADO,1609459223508,"2021-01-01 00:00:23",NULL,11001,NULL,NULL,NULL,4.716932763506253,4.756229171000086,-74.13810823112726,-74.08726387099995,EFECTIVO,NULL,APP,NULL,NULL,0,NORMAL,TIEMPO_RUTA,NORMAL,0,9397394,NULL,NULL,NULL,NULL,"USU|AppUsuario|Antes de asignacion","cl 69 b # 121 - par",NULL,"LA FAENA",NULL,NULL,NULL,NULL,NULL,NULL,NULL,NULL,NULL,NULL,NULL,NULL
45691504,NULL,NULL,180,NULL,NULL,NULL,NULL,15200,60,NULL,"Estación de Bomberos Garces Navas-Bogotá","cl 154a # 94 - 54",ABANDONADO,1609459223545,"2021-01-01 00:00:23",NULL,11001,NULL,NULL,NULL,4.751817913000082,4.71418,-74.08338383999995,-74.12079,EFECTIVO,NULL,APP,NULL,NULL,0,NORMAL,TIEMPO_RUTA,NORMAL,0,9374681,NULL,NULL,NULL,NULL,NULL,"cl 154 a # 94 - par",NULL,"SALITRE I",NULL,NULL,NULL,NULL,NULL,NULL,NULL,NULL,NULL,NULL,NULL,NULL
45691505,NULL,NULL,180,NULL,NULL,NULL,NULL,NULL,60,NULL,"Cai La Candelaria","cl 54 # 7 - 19",ABANDONADO,1609459223810,"2021-01-01 00:00:23",NULL,11001,NULL,NULL,NULL,4.594211555818359,4.57334,-74.1907325014472,-74.15323,EFECTIVO,NULL,APP,NULL,NULL,4000,NORMAL,TIEMPO_RUTA,NORMAL,0,9041343,NULL,NULL,NULL,NULL,NULL,"cl 54 # 7 - impar",NULL,"CHAPINERO CENTRAL",NULL,NULL,NULL,NULL,NULL,NULL,NULL,NULL,NULL,NULL,NULL,NULL
45691506,NULL,NULL,180,NULL,NULL,NULL,NULL,24300,60,NULL,"KR 116A # 81 - 84","kr 11 # 180a - 5",ABANDONADO,1609459224152,"2021-01-01 00:00:24",NULL,11001,NULL,NULL,NULL,4.756880123478599,4.725959476000071,-74.03364926576614,-74.12059767699992,EFECTIVO,NULL,APP,NULL,NULL,2000,NORMAL,TIEMPO_RUTA,NORMAL,0,4447853,NULL,NULL,NULL,NULL,NULL,"kr 11 # 180 a - impar",NULL,"SAN JOSE DE USAQUEN",NULL,NULL,NULL,NULL,NULL,NULL,NULL,NULL,NULL,NULL,NULL,NULL
45691507,NULL,NULL,180,NULL,NULL,NULL,NULL,21000,60,NULL,"kr 78a # 42b - 33 sur","kr 94h # 84 - 47",ABANDONADO,1609459225639,"2021-01-01 00:00:25",NULL,11001,NULL,NULL,NULL,4.7106943306901155,4.6129087,-74.10309132188559,-74.159402,EFECTIVO,NULL,APP,NULL,NULL,4000,NORMAL,TIEMPO_RUTA,NORMAL,0,9170115,NULL,NULL,NULL,NULL,NULL,"kr 94 h # 84 - impar",NULL,"CIUDAD QUIRIGUA",NULL,NULL,NULL,NULL,NULL,NULL,NULL,NULL,NULL,NULL,NULL,NULL
45691508,NULL,NULL,180,NULL,NULL,NULL,NULL,7200,60,NULL,"Calle 128 # 104A - 11","kr 102 # 153 - 27",ABANDONADO,1609459225768,"2021-01-01 00:00:25",NULL,11001,NULL,NULL,NULL,4.754134583000052,4.728730429000052,-74.08982151299995,-74.10195332899991,EFECTIVO,NULL,APP,NULL,NULL,0,NORMAL,TIEMPO_RUTA,NORMAL,0,9218067,NULL,NULL,NULL,NULL,NULL,"kr 102 # 153 - impar",NULL,"EL SALITRE",NULL,NULL,NULL,NULL,NULL,NULL,NULL,NULL,NULL,NULL,NULL,NULL
45691509,NULL,119811,180,4,5,158195811111569691755,...,6500,60,NULL,"CL 146B # AK 72 (BOGOTA)","kr 56 # 161 - 40",CUMPLIDO,1609459225775,"2021-01-01 00:00:25",NULL,11001,NULL,NULL,NULL,4.744500150406274,4.73296,-74.05882112681866,-74.06717,EFECTIVO,NULL,APP,SMY863,4,0,NORMAL,TIEMPO_RUTA,NORMAL,0,8766204,NULL,NULL,158195811111569691755,NULL,NULL,"kr 56 # 161 - par","Pago definido/preliquidado por 6500",BRITALIA,NULL,NULL,NULL,NULL,NULL,NULL,NULL,NULL,NULL,NULL,NULL,NULL
45691510,NULL,NULL,90,NULL,NULL,NULL,NULL,NULL,60,,NULL,"cra. 20 39-10 sur",ABANDONADO,1609459226454,"2021-01-01 00:00:26",NULL,11001,17089083,NULL,CASA,4.57685615,NULL,-74.1192739,NULL,EFECTIVO,NULL,IVR,NULL,NULL,NULL,NORMAL,TIEMPO_RUTA,NORMAL,0,8400513,NULL,8400513,NULL,NULL,NULL,"kr 20 # 39 sur - par",NULL,"QUIROGA SUR",NULL,NULL,NULL,NULL,NULL,NULL,NULL,NULL,NULL,NULL,NULL,NULL
45691511,NULL,NULL,90,NULL,NULL,NULL,NULL,NULL,32,"NUEVA FLORESTA DEL ICT",NULL,"cra. 25a # 56 71",ABANDONADO,1609459226720,"2021-01-01 00:00:26",NULL,76001,Sip/Cali_4444444,NULL,,3.43833115,NULL,-76.49600992,NULL,EFECTIVO,NULL,IVR,NULL,NULL,NULL,NORMAL,TIEMPO_RUTA,NORMAL,0,4327148,NULL,4327148,NULL,NULL,NULL,"kr 25 a # 56 - impar",NULL,"NUEVA FLORESTA DEL ICT",NULL,NULL,NULL,NULL,NULL,NULL,NULL,NULL,NULL,NULL,NULL,NULL
45691512,NULL,NULL,180,NULL,NULL,NULL,NULL,9500,60,NULL,"KR 34A # 33 - 291","cl 81 sur # 96 - 24",ABANDONADO,1609459227073,"2021-01-01 00:00:27",NULL,11001,NULL,NULL,NULL,4.629205996020269,4.608905460451639,-74.20949555933475,-74.21270113438366,EFECTIVO,NULL,APP,NULL,NULL,2000,NORMAL,TIEMPO_RUTA,NORMAL,0,9100634,NULL,NULL,NULL,NULL,NULL,"cl 81 sur # 96 - par",NULL,"EL REMANSO",NULL,NULL,NULL,NULL,NULL,NULL,NULL,NULL,NULL,NULL,NULL,NULL
45691513,NULL,NULL,180,NULL,NULL,NULL,NULL,13800,60,NULL,"Conj Res Mandarino Psp","kr 81d # 8c - 45",CANCELADO,1609459227260,"2021-01-01 00:00:27",NULL,11001,NULL,NULL,NULL,4.6460345,4.70102,-74.1465504,-74.10682,EFECTIVO,NULL,APP,NULL,NULL,0,NORMAL,TIEMPO_RUTA,NORMAL,0,8458353,NULL,NULL,NULL,NULL,"USU|AppUsuario|Antes de asignacion","kr 81 d # 8 c - impar",NULL,VALLADOLID,NULL,NULL,NULL,NULL,NULL,NULL,NULL,NULL,NULL,NULL,NULL,NULL
45691514,NULL,173035,180,5,NULL,101099359764835702461,...,6000,60,NULL,"CL 2BIS # KR 73 (BOGOTA)","kr 70a # 1 - 61",CUMPLIDO,1609459227704,"2021-01-01 00:00:27",NULL,11001,NULL,NULL,NULL,4.622785654408069,4.624009331000082,-74.13197670131922,-74.14161235599994,EFECTIVO,NULL,APP,ESN412,4,0,NORMAL,TIEMPO_RUTA,NORMAL,0,9329144,NULL,NULL,101099359764835702461,NULL,NULL,"kr 70 a # 1 - impar","Pago definido/preliquidado por 6000","CENTRO AMERICAS",NULL,NULL,NULL,NULL,NULL,NULL,NULL,NULL,NULL,NULL,NULL,NULL
45691515,NULL,NULL,180,NULL,NULL,NULL,NULL,5800,60,NULL,"Cai Altamira","cl 38 sur # 4 - 93 este",ABANDONADO,1609459228066,"2021-01-01 00:00:28",NULL,11001,NULL,NULL,NULL,4.551793108177344,4.537,-74.09093756228685,-74.08613,EFECTIVO,NULL,APP,NULL,NULL,4000,NORMAL,TIEMPO_RUTA,NORMAL,0,9188170,NULL,NULL,NULL,NULL,NULL,"cl 38 sur # 4 este - impar",NULL,"LA VICTORIA",NULL,NULL,NULL,NULL,NULL,NULL,NULL,NULL,NULL,NULL,NULL,NULL
45691516,NULL,NULL,180,NULL,NULL,NULL,NULL,19000,60,NULL,"Palos Verdes A Cra. 45 entre Cll. 66 y 67","kr 54 # 5 - 35",ABANDONADO,1609459228384,"2021-01-01 00:00:28",NULL,5001,NULL,NULL,NULL,6.212025738273991,6.262178400000001,-75.58449883013964,-75.5557097,EFECTIVO,NULL,APP,NULL,NULL,5000,NORMAL,TIEMPO_RUTA,NORMAL,0,9089418,NULL,NULL,NULL,NULL,NULL,"kr 54 # 5 - impar",NULL,"CAMPO AMOR",NULL,NULL,NULL,NULL,NULL,NULL,NULL,NULL,NULL,NULL,NULL,NULL
45691517,NULL,NULL,180,NULL,NULL,NULL,NULL,22800,60,NULL,"La Libertad","kr 68b # 74a - 26",ABANDONADO,1609459228434,"2021-01-01 00:00:28",NULL,11001,NULL,NULL,NULL,4.680232466973405,4.62582,-74.08497333526611,-74.19149,EFECTIVO,NULL,APP,NULL,NULL,0,NORMAL,TIEMPO_RUTA,NORMAL,0,9277215,NULL,NULL,NULL,NULL,NULL,"kr 68 b # 74 a - par",NULL,METROPOLIS,NULL,NULL,NULL,NULL,NULL,NULL,NULL,NULL,NULL,NULL,NULL,NULL
45691518,NULL,NULL,180,NULL,NULL,NULL,NULL,19300,60,NULL,"La Independencia","kr 20 # 10 - 15 sur",ABANDONADO,1609459228834,"2021-01-01 00:00:28",NULL,11001,NULL,NULL,NULL,4.589867959794437,4.62079,-74.0981402993202,-74.19606,EFECTIVO,NULL,APP,NULL,NULL,3000,NORMAL,TIEMPO_RUTA,NORMAL,0,9397276,NULL,NULL,NULL,NULL,NULL,"kr 20 # 10 sur - impar",NULL,LUNAPARK,NULL,NULL,NULL,NULL,NULL,NULL,NULL,NULL,NULL,NULL,NULL,NULL
45691519,NULL,161303,180,5,5,155241635797392281461,...,27800,60,NULL,"KR 64 # CL 59 SUR (BOGOTA)","ak 72 # 163 - 61",CUMPLIDO,1609459229515,"2021-01-01 00:00:29",NULL,11001,NULL,NULL,NULL,4.7488878959689185,4.59414092600008,-74.06527318060398,-74.15483848299993,EFECTIVO,NULL,APP,FUZ574,4,2000,NORMAL,TIEMPO_RUTA,NORMAL,0,8742232,NULL,NULL,155241635797392281461,NULL,NULL,"ak 72 # 163 - impar","Pago definido/preliquidado por 27800","PORTALES DEL NORTE",NULL,NULL,NULL,NULL,NULL,NULL,NULL,NULL,NULL,NULL,NULL,NULL
45691520,NULL,NULL,180,NULL,NULL,NULL,NULL,13500,60,NULL,"carrera 57 119a-60","dg 61d # 27 - 17",ABANDONADO,1609459229932,"2021-01-01 00:00:30",NULL,11001,NULL,NULL,NULL,4.649815393152317,4.70552,-74.0752536803484,-74.06805,EFECTIVO,NULL,APP,NULL,NULL,0,NORMAL,TIEMPO_RUTA,NORMAL,0,8965725,NULL,NULL,NULL,NULL,NULL,"dg 61 d # 27 - impar",NULL,"EL CAMPIN",NULL,NULL,NULL,NULL,NULL,NULL,NULL,NULL,NULL,NULL,NULL,NULL
45691521,NULL,NULL,180,NULL,NULL,NULL,NULL,15200,60,NULL,"Madelena Urbano","cl 11 # 88a - 1",ABANDONADO,1609459230106,"2021-01-01 00:00:30",NULL,11001,NULL,NULL,NULL,4.653933056595803,4.59294,-74.14840757846832,-74.15757,EFECTIVO,NULL,APP,NULL,NULL,0,NORMAL,TIEMPO_RUTA,PREMIUM,0,8770894,NULL,NULL,NULL,NULL,NULL,"cl 11 # 88 a - impar",NULL,"EL VERGEL OCCIDENTAL",NULL,NULL,NULL,NULL,NULL,NULL,NULL,NULL,NULL,NULL,NULL,NULL
45691522,NULL,NULL,180,NULL,NULL,NULL,NULL,8600,60,NULL,"Revellion Cultu-Bar","kr 8 # 47 - 41",ABANDONADO,1609459232085,"2021-01-01 00:00:32",NULL,11001,NULL,NULL,NULL,4.634303261984219,4.60108,-74.06452551484108,-74.07038,EFECTIVO,NULL,APP,NULL,NULL,0,NORMAL,TIEMPO_RUTA,NORMAL,0,9118961,NULL,NULL,NULL,NULL,NULL,"kr 8 # 47 - impar",NULL,MARLY,NULL,NULL,NULL,NULL,NULL,NULL,NULL,NULL,NULL,NULL,NULL,NULL
45691523,NULL,NULL,180,NULL,NULL,NULL,NULL,16300,60,NULL,"kr 88c bis # 5a - 36 sur","calle 72a 72a-6",ABANDONADO,1609459232626,"2021-01-01 00:00:32",NULL,11001,NULL,NULL,NULL,4.68861,4.641748084870704,-74.09554,-74.16253946721554,EFECTIVO,NULL,APP,NULL,NULL,1000,NORMAL,TIEMPO_RUTA,NORMAL,0,9329285,NULL,NULL,NULL,NULL,NULL,"cl 72 a # 72 a - par",NULL,"SANTA MARIA",NULL,NULL,NULL,NULL,NULL,NULL,NULL,NULL,NULL,NULL,NULL,NULL
45691524,NULL,NULL,180,NULL,NULL,NULL,NULL,8200,60,NULL,"Carrera 87B 8A-72","kr 75 # 17 - 51",ABANDONADO,1609459232844,"2021-01-01 00:00:32",NULL,11001,NULL,NULL,NULL,4.652677576145042,4.64931,-74.12707328796387,-74.15043,EFECTIVO,NULL,APP,NULL,NULL,1000,NORMAL,TIEMPO_RUTA,NORMAL,0,8939020,NULL,NULL,NULL,NULL,NULL,"kr 75 # 17 - impar",NULL,"LA FELICIDAD",NULL,NULL,NULL,NULL,NULL,NULL,NULL,NULL,NULL,NULL,NULL,NULL
45691525,NULL,NULL,180,NULL,NULL,NULL,NULL,9800,60,NULL,"Timiza, Bogotá, Colombia","ac 8 # 94 - 2",ABANDONADO,1609459232814,"2021-01-01 00:00:32",NULL,11001,NULL,NULL,NULL,4.654431639108054,4.6155104,-74.15723204612732,-74.1540902,EFECTIVO,NULL,APP,NULL,NULL,0,NORMAL,TIEMPO_RUTA,NORMAL,0,8262616,NULL,NULL,NULL,NULL,NULL,"ac 8 # 94 - par",NULL,"CAMPO ALEGRE",NULL,NULL,NULL,NULL,NULL,NULL,NULL,NULL,NULL,NULL,NULL,NULL
45691526,NULL,NULL,90,NULL,NULL,NULL,NULL,NULL,60,,NULL,"cra. 63 22 31",ABANDONADO,1609459234578,"2021-01-01 00:00:34",NULL,11001,17089088,NULL,"CONJ QUINTAS DEL SALITRE PORTERIA",4.64226905,NULL,-74.10702272,NULL,EFECTIVO,NULL,IVR,NULL,NULL,NULL,NORMAL,TIEMPO_RUTA,NORMAL,0,4174055,NULL,4174055,NULL,NULL,NULL,"kr 63 # 22 - impar",NULL,"CIUDAD SALITRE SUR-ORIENTAL",NULL,NULL,NULL,NULL,NULL,NULL,NULL,NULL,NULL,NULL,NULL,NULL
45691527,NULL,4224,180,1,NULL,110297559831285693585,...,9100,60,NULL,"CL 53A SUR # KR 25 (BOGOTA)","kr 19 # 17 - 59 sur",CUMPLIDO,1609459235091,"2021-01-01 00:00:35",NULL,11001,NULL,NULL,NULL,4.585627606037411,4.577971645090762,-74.10163521766663,-74.1376157104969,EFECTIVO,NULL,APP,WGG852,4,0,NORMAL,TIEMPO_RUTA,NORMAL,0,8763828,NULL,NULL,110297559831285693585,NULL,NULL,"kr 19 # 17 sur - impar","Pago definido/preliquidado por 9100",RESTREPO,NULL,NULL,NULL,NULL,NULL,NULL,NULL,NULL,NULL,NULL,NULL,NULL
45691528,NULL,NULL,180,NULL,NULL,NULL,NULL,9300,60,NULL,"Carrera 72B 9-96","cl 63f # 73 - 35",ABANDONADO,1609459237009,"2021-01-01 00:00:37",NULL,11001,NULL,NULL,NULL,4.676951360103374,4.64085,-74.1043009981513,-74.13649,EFECTIVO,NULL,APP,NULL,NULL,2000,NORMAL,TIEMPO_RUTA,NORMAL,0,8952499,NULL,NULL,NULL,NULL,NULL,"cl 63 f # 73 - impar",NULL,"EL ENCANTO",NULL,NULL,NULL,NULL,NULL,NULL,NULL,NULL,NULL,NULL,NULL,NULL
45691529,NULL,NULL,180,NULL,NULL,NULL,NULL,7000,60,NULL,"Carrera 51B 41BIS S","cl 52b sur # 24d - 0",ABANDONADO,1609459237286,"2021-01-01 00:00:37",NULL,11001,NULL,NULL,NULL,4.578169161090153,4.59615,-74.13345895707607,-74.13105,EFECTIVO,NULL,APP,NULL,NULL,0,NORMAL,TIEMPO_RUTA,NORMAL,0,9386258,NULL,NULL,NULL,NULL,NULL,"cl 52 b sur # 24 d - par",NULL,"EL TUNAL ORIENTAL",NULL,NULL,NULL,NULL,NULL,NULL,NULL,NULL,NULL,NULL,NULL,NULL
45691530,NULL,NULL,90,NULL,NULL,NULL,NULL,NULL,32,"ALFONSO LOPEZ 1",NULL,"cr 7b # 86 37",ABANDONADO,1609459237522,"2021-01-01 00:00:37",NULL,76001,Sip/Cali_4444444,NULL,,3.46654781,NULL,-76.47618974,NULL,EFECTIVO,NULL,IVR,NULL,NULL,NULL,NORMAL,TIEMPO_RUTA,NORMAL,0,4376205,NULL,4376205,NULL,NULL,NULL,"kr 7 b # 86 - impar",NULL,"ALFONSO LOPEZ I ETAPA",NULL,NULL,NULL,NULL,NULL,NULL,NULL,NULL,NULL,NULL,NULL,NULL
45691531,NULL,NULL,180,NULL,NULL,NULL,NULL,NULL,60,NULL,NULL,"cl 46 sur # 22a - 38",ABANDONADO,1609459238807,"2021-01-01 00:00:38",NULL,11001,NULL,NULL,NULL,4.575228807295788,NULL,-74.1263621672988,NULL,EFECTIVO,NULL,APP,NULL,NULL,0,NORMAL,TIEMPO_RUTA,NORMAL,0,8121702,NULL,NULL,NULL,NULL,NULL,"cl 46 sur # 22 a - par",NULL,"SANTA LUCIA",NULL,NULL,NULL,NULL,NULL,NULL,NULL,NULL,NULL,NULL,NULL,NULL
45691532,NULL,160082,180,NULL,NULL,158643961664831911964,...,21400,60,NULL,"KR 116A # CL 23B (BOGOTA)","cl 144c # 141a - 48",CUMPLIDO,1609459238886,"2021-01-01 00:00:38",NULL,11001,NULL,NULL,NULL,4.754097889913629,4.68961,-74.11337491124868,-74.147,EFECTIVO,NULL,APP,FUZ292,5,0,NORMAL,TIEMPO_RUTA,NORMAL,0,9397380,NULL,NULL,158643961664831911964,NULL,NULL,"cl 144 c # 141 a - par","Pago definido/preliquidado por 21400",CONEJERA,NULL,NULL,NULL,NULL,NULL,NULL,NULL,NULL,NULL,NULL,NULL,NULL
45691533,NULL,NULL,180,NULL,NULL,NULL,NULL,12700,60,NULL,"KR 81G # 73 - 32 Sur","cl 58b sur # 48b - 48",ABANDONADO,1609459238969,"2021-01-01 00:00:39",NULL,11001,NULL,NULL,NULL,4.579041773423033,4.611952722000069,-74.15158834308386,-74.19765153799995,EFECTIVO,NULL,APP,NULL,NULL,0,NORMAL,TIEMPO_RUTA,NORMAL,0,9125212,NULL,NULL,NULL,NULL,NULL,"cl 58 b sur # 48 b - par",NULL,CORU��A,NULL,NULL,NULL,NULL,NULL,NULL,NULL,NULL,NULL,NULL,NULL,NULL
45691534,NULL,NULL,180,NULL,NULL,NULL,NULL,4800,60,NULL,"KR 52C # 37A - 82 Sur","kr 51 # 39 - 14 sur",ABANDONADO,1609459238998,"2021-01-01 00:00:39",NULL,11001,NULL,NULL,NULL,4.597639425452809,4.602438816265991,-74.12837851792574,-74.1315059736371,EFECTIVO,NULL,APP,NULL,NULL,1000,NORMAL,TIEMPO_RUTA,NORMAL,0,9335169,NULL,NULL,NULL,NULL,NULL,"kr 51 # 39 sur - par",NULL,"AUTOPISTA DEL SUR",NULL,NULL,NULL,NULL,NULL,NULL,NULL,NULL,NULL,NULL,NULL,NULL
45691535,NULL,153128,180,5,5,100141428839805630662,...,17500,60,NULL,"AK 72 # AC 138 (BOGOTA)","cl 23b bis # 82 - 74",CUMPLIDO,1609459239111,"2021-01-01 00:00:39",NULL,11001,NULL,NULL,NULL,4.667965078567063,4.72965,-74.12515316158535,-74.06817,EFECTIVO,NULL,APP,WPM830,4,0,NORMAL,TIEMPO_RUTA,NORMAL,0,8309114,NULL,NULL,100141428839805630662,NULL,NULL,"cl 23 b bis # 82 - par","Pago definido/preliquidado por 17500","MODELIA OCCIDENTAL",NULL,NULL,NULL,NULL,NULL,NULL,NULL,NULL,NULL,NULL,NULL,NULL
45691536,126,NULL,90,NULL,NULL,NULL,NULL,NULL,60,"TIENDA LA 35",NULL,"cra. 20c  65 04 sur",ABANDONADO,1609459239546,"2021-01-01 00:00:39",NULL,11001,17089052,NULL,"PANADERIA EL REY",4.56345446,NULL,-74.14688771,NULL,EFECTIVO,,RECEPCION,NULL,NULL,NULL,NORMAL,TIEMPO_RUTA,,0,3591949,NULL,3591949,NULL,NULL,NULL,"kr 20 c # 65 sur - par",NULL,"SAN FRANCISCO",NULL,NULL,NULL,NULL,NULL,NULL,NULL,NULL,NULL,NULL,NULL,NULL
45691537,NULL,NULL,90,NULL,NULL,NULL,NULL,NULL,32,"URBANIZACION LA FLORA",NULL,"cl. 63 norte # 3e norte 70",ABANDONADO,1609459239814,"2021-01-01 00:00:39",NULL,76001,Sip/Cali_4444444,NULL,"PLAZUELA DE SANTA BARBARA",3.49102497,NULL,-76.51628644,NULL,EFECTIVO,NULL,IVR,NULL,NULL,NULL,NORMAL,TIEMPO_RUTA,NORMAL,0,4371907,NULL,4371907,NULL,NULL,NULL,"cl 63 norte # 3 e - par",NULL,"URBANIZACION LA FLORA",NULL,NULL,NULL,NULL,NULL,NULL,NULL,NULL,NULL,NULL,NULL,NULL
45691538,NULL,NULL,90,NULL,NULL,NULL,NULL,NULL,60,,NULL,"cra. 50 a # 35 sur - 04",ABANDONADO,1609459239928,"2021-01-01 00:00:40",NULL,11001,17089087,NULL,CASA,4.59903238,NULL,-74.12482589,NULL,EFECTIVO,NULL,IVR,NULL,NULL,NULL,NORMAL,TIEMPO_RUTA,NORMAL,0,7203919,NULL,7203919,NULL,NULL,NULL,"kr 50 a # 35 sur - par",NULL,"AUTOPISTA DEL SUR",NULL,NULL,NULL,NULL,NULL,NULL,NULL,NULL,NULL,NULL,NULL,NULL
45691539,NULL,172720,180,5,5,107873713898310020540,...,12700,60,NULL,"AK 72 # CL 54BIS (BOGOTA)","cl 50 # 9 - 67",CUMPLIDO,1609459241346,"2021-01-01 00:00:41",NULL,11001,NULL,NULL,NULL,4.637010783184835,4.671983872000055,-74.06506530940533,-74.10544743699995,EFECTIVO,NULL,APP,ESL061,4,0,NORMAL,TIEMPO_RUTA,NORMAL,0,8817684,NULL,NULL,107873713898310020540,NULL,NULL,"cl 50 # 9 - impar","Pago definido/preliquidado por 12700",MARLY,NULL,NULL,NULL,NULL,NULL,NULL,NULL,NULL,NULL,NULL,NULL,NULL
45691540,NULL,NULL,180,NULL,NULL,NULL,NULL,24500,60,NULL,"cl 78a # 99b - 63","kr 77v bis a # 54a - 2 sur",ABANDONADO,1609459241590,"2021-01-01 00:00:41",NULL,11001,NULL,NULL,NULL,4.609704178831108,4.709661556000071,-74.16955545544624,-74.11305855899991,EFECTIVO,NULL,APP,NULL,NULL,0,NORMAL,TIEMPO_RUTA,NORMAL,0,6971198,NULL,NULL,NULL,NULL,NULL,"kr 77 v bis a # 54 a sur - par",NULL,"LAS LUCES",NULL,NULL,NULL,NULL,NULL,NULL,NULL,NULL,NULL,NULL,NULL,NULL
45691541,NULL,NULL,180,NULL,NULL,NULL,NULL,20900,60,NULL,"KR 99C # 60 - 28 Sur","kr 123 # 14b - 46",ABANDONADO,1609459241643,"2021-01-01 00:00:41",NULL,11001,NULL,NULL,NULL,4.6816172171059565,4.637518948000093,-74.16546273976564,-74.19765162099992,EFECTIVO,NULL,APP,NULL,NULL,4000,NORMAL,TIEMPO_RUTA,NORMAL,0,9167887,NULL,NULL,NULL,NULL,NULL,"kr 123 # 14 b - par",NULL,"EL PORVENIR",NULL,NULL,NULL,NULL,NULL,NULL,NULL,NULL,NULL,NULL,NULL,NULL
45691542,NULL,NULL,180,NULL,NULL,NULL,NULL,14600,60,NULL,"Cai Ramajal","kr 18r # 61 - 61 sur",CANCELADO,1609459242439,"2021-01-01 00:00:42",NULL,11001,NULL,NULL,NULL,4.560306609890568,4.558062861999986,-74.14016079157591,-74.08313905699998,EFECTIVO,NULL,APP,NULL,NULL,0,NORMAL,TIEMPO_RUTA,NORMAL,0,9073097,NULL,NULL,NULL,NULL,"USU|AppUsuario|Antes de asignacion","kr 18 r # 61 sur - impar",NULL,"LUCERO ALTO",NULL,NULL,NULL,NULL,NULL,NULL,NULL,NULL,NULL,NULL,NULL,NULL
45691543,NULL,NULL,180,NULL,NULL,NULL,NULL,5200,60,NULL,"Cai Patio Bonito","kr 98 # 2 - 40",ABANDONADO,1609459242663,"2021-01-01 00:00:42",NULL,11001,NULL,NULL,NULL,4.651421888000073,4.63884,-74.16973170699993,-74.16104,EFECTIVO,NULL,APP,NULL,NULL,0,NORMAL,TIEMPO_RUTA,NORMAL,0,8897335,NULL,NULL,NULL,NULL,NULL,"kr 98 # 2 - par",NULL,"LOS PANTANOS",NULL,NULL,NULL,NULL,NULL,NULL,NULL,NULL,NULL,NULL,NULL,NULL
45691544,NULL,NULL,90,NULL,NULL,NULL,NULL,NULL,60,,NULL,"cl. 74 20 b 73",ABANDONADO,1609459242723,"2021-01-01 00:00:42",NULL,11001,17089093,NULL,LOCAL,4.66283254,NULL,-74.06317913,NULL,EFECTIVO,NULL,IVR,NULL,NULL,NULL,NORMAL,TIEMPO_RUTA,NORMAL,0,9149459,NULL,9149459,NULL,NULL,NULL,"cl 74 # 20 b - impar",NULL,"SAN FELIPE",NULL,NULL,NULL,NULL,NULL,NULL,NULL,NULL,NULL,NULL,NULL,NULL
45691545,NULL,NULL,180,NULL,NULL,NULL,NULL,12100,60,NULL,"CL 59 Sur # 79C - 2","kr 80c # 8b - 38",ABANDONADO,1609459242879,"2021-01-01 00:00:42",NULL,11001,NULL,NULL,NULL,4.643482458674018,4.607243459000074,-74.14455693215132,-74.18054059499991,EFECTIVO,NULL,APP,NULL,NULL,0,NORMAL,TIEMPO_RUTA,NORMAL,0,9380616,NULL,NULL,NULL,NULL,NULL,"kr 80 c # 8 b - par",NULL,"CIUDAD TECHO",NULL,NULL,NULL,NULL,NULL,NULL,NULL,NULL,NULL,NULL,NULL,NULL
45691546,NULL,NULL,180,NULL,NULL,NULL,NULL,18000,60,NULL,"CL 7A BIS # 79B - 81","kr 1b # 1b - 84",ABANDONADO,1609459243214,"2021-01-01 00:00:43",NULL,11001,NULL,NULL,NULL,4.585105246719802,4.63732255900004,-74.0764794498682,-74.14668974199992,EFECTIVO,NULL,APP,NULL,NULL,0,NORMAL,TIEMPO_RUTA,NORMAL,0,9253377,NULL,NULL,NULL,NULL,NULL,"kr 1 b # 1 b - par",NULL,GIRARDOT,NULL,NULL,NULL,NULL,NULL,NULL,NULL,NULL,NULL,NULL,NULL,NULL
45691547,NULL,162014,180,5,5,153115341163429051239,...,19700,60,NULL,"KR 113 # AC 26 (BOGOTA)","cl 12a # 71c - 20",CUMPLIDO,1609459244235,"2021-01-01 00:00:44",NULL,11001,NULL,NULL,NULL,4.642537743452784,4.698364,-74.12809789180756,-74.141208,EFECTIVO,NULL,APP,FUZ968,4,0,NORMAL,TIEMPO_RUTA,PREMIUM,0,8722258,NULL,NULL,153115341163429051239,NULL,NULL,"cl 12 a # 71 c - par","Pago definido/preliquidado por 19700","VILLA ALSACIA",NULL,NULL,NULL,NULL,NULL,NULL,NULL,NULL,NULL,NULL,NULL,NULL
45691548,NULL,NULL,90,NULL,NULL,NULL,NULL,NULL,60,ASADERO,NULL,"tv. 44 51 - 24 sur",ABANDONADO,1609459244921,"2021-01-01 00:00:45",NULL,11001,17089094,NULL,PRPL,4.5894445,NULL,-74.13877354,NULL,EFECTIVO,NULL,IVR,NULL,NULL,NULL,NORMAL,TIEMPO_RUTA,NORMAL,0,3539453,NULL,3539453,NULL,NULL,NULL,"tv 44 # 51 sur - par",NULL,FATIMA,NULL,NULL,NULL,NULL,NULL,NULL,NULL,NULL,NULL,NULL,NULL,NULL
45691549,NULL,NULL,180,NULL,NULL,NULL,NULL,15200,60,NULL,"TV 18Q # 71 - 32 Sur","cl 1d # 40b - 19",ABANDONADO,1609459245128,"2021-01-01 00:00:45",NULL,11001,NULL,NULL,NULL,4.6083630666638244,4.545749072439099,-74.11506034433842,-74.15159605443478,EFECTIVO,NULL,APP,NULL,NULL,5000,NORMAL,TIEMPO_RUTA,NORMAL,0,8888016,NULL,NULL,NULL,NULL,NULL,"cl 1 d # 40 b - impar",NULL,JAZMIN,NULL,NULL,NULL,NULL,NULL,NULL,NULL,NULL,NULL,NULL,NULL,NULL
45691550,NULL,154406,90,NULL,5,112320484399298843501,NULL,4700,32,NULL,"CL 27 # KR 43A (CALI)","cc la pasarela local 225 segundo piso, avenida 5an no23dn-68, cl. 2a, cali, valle del cauca, colombia",CUMPLIDO,1609459245436,"2021-01-01 00:00:45",NULL,76001,NULL,NULL,NULL,3.4505256,3.4120333,-76.5386167,-76.5176641,VALE,9843209,CALLE,EQK915,5,NULL,NORMAL,TIEMPO_RUTA,,0,16659213,NULL,NULL,112320484399298843501,true,,"av 5 a # 23 d norte - par","Pago definido/preliquidado por 4700","SAN VICENTE",NULL,NULL,NULL,NULL,NULL,NULL,NULL,NULL,NULL,NULL,NULL,NULL
45691551,NULL,110275,180,NULL,5,156115511396329326211,...,15800,60,NULL,"CL 118 # KR 23 (BOGOTA)","kr 44a # 24d - 18",CUMPLIDO,1609459245737,"2021-01-01 00:00:45",NULL,11001,NULL,NULL,NULL,4.635044002261005,4.70068,-74.09216889617498,-74.05356,EFECTIVO,NULL,APP,VDW912,4,0,NORMAL,TIEMPO_RUTA,NORMAL,0,9356725,NULL,NULL,156115511396329326211,NULL,NULL,"kr 44 a # 24 d - par","Pago definido/preliquidado por 15800","QUINTA PAREDES",NULL,NULL,NULL,NULL,NULL,NULL,NULL,NULL,NULL,NULL,NULL,NULL
45691552,NULL,NULL,180,NULL,NULL,NULL,NULL,6400,60,NULL,"KR 78H # 60A - 32 Sur","kr 77k # 57d - 59 sur",ABANDONADO,1609459246080,"2021-01-01 00:00:46",NULL,11001,NULL,NULL,NULL,4.606066828120028,4.604314157000091,-74.1735452413559,-74.18129419899992,EFECTIVO,NULL,APP,NULL,NULL,0,NORMAL,TIEMPO_RUTA,NORMAL,0,9381433,NULL,NULL,NULL,NULL,NULL,"kr 77 k # 57 d sur - impar",NULL,"LA UNIDAD",NULL,NULL,NULL,NULL,NULL,NULL,NULL,NULL,NULL,NULL,NULL,NULL
45691553,NULL,NULL,180,NULL,NULL,NULL,NULL,22100,60,NULL,"Panaderia y Cafeteria Mi Rubis de la 41","kr 65 # 11 - 30",ABANDONADO,1609459246776,"2021-01-01 00:00:46",NULL,11001,NULL,NULL,NULL,4.632370696383172,4.5464204,-74.11614932119846,-74.082498,EFECTIVO,NULL,APP,NULL,NULL,0,NORMAL,TIEMPO_RUTA,NORMAL,0,9069519,NULL,NULL,NULL,NULL,NULL,"kr 65 # 11 - par",NULL,"SALAZAR GOMEZ",NULL,NULL,NULL,NULL,NULL,NULL,NULL,NULL,NULL,NULL,NULL,NULL
45691554,NULL,NULL,180,NULL,NULL,NULL,NULL,6100,60,NULL,"CL 19 # 96C - 65","kr 83 # 13d - 15",ABANDONADO,1609459247102,"2021-01-01 00:00:47",NULL,11001,NULL,NULL,NULL,4.6545586238737755,4.670294793000039,-74.13971185684204,-74.14046561499993,EFECTIVO,NULL,APP,NULL,NULL,0,NORMAL,TIEMPO_RUTA,NORMAL,0,8771900,NULL,NULL,NULL,NULL,NULL,"kr 83 # 13 d - impar",NULL,"EL VERGEL OCCIDENTAL",NULL,NULL,NULL,NULL,NULL,NULL,NULL,NULL,NULL,NULL,NULL,NULL
45691555,NULL,NULL,180,NULL,NULL,NULL,NULL,24400,60,NULL,"kr 89a # 42f - 70 sur","cl 40b bis sur # 11 - 21 este",ABANDONADO,1609459247307,"2021-01-01 00:00:47",NULL,11001,NULL,NULL,NULL,4.547689893911643,4.636158592000072,-74.08620178699493,-74.1737194879999,EFECTIVO,NULL,APP,NULL,NULL,0,NORMAL,TIEMPO_RUTA,NORMAL,0,8182276,NULL,NULL,NULL,NULL,NULL,"cl 40 b bis sur # 11 este - impar",NULL,"SAN JOSE ORIENTAL",NULL,NULL,NULL,NULL,NULL,NULL,NULL,NULL,NULL,NULL,NULL,NULL
45691556,NULL,NULL,180,NULL,NULL,NULL,NULL,10600,60,NULL,"kr 102 # 70 - 15","cra. 69q #7437",ABANDONADO,1609459247428,"2021-01-01 00:00:47",NULL,11001,NULL,NULL,NULL,4.6868316,4.7026717,-74.088561,-74.1204155,EFECTIVO,NULL,APP,NULL,NULL,0,NORMAL,TIEMPO_RUTA,NORMAL,0,398016,NULL,NULL,NULL,NULL,NULL,"kr 69 q # 743 - par",NULL,"SIN BARRIO",NULL,NULL,NULL,NULL,NULL,NULL,NULL,NULL,NULL,NULL,NULL,NULL
45691557,599,NULL,90,NULL,NULL,NULL,NULL,NULL,60,,NULL,"cl. 37 b sur 83 09",ABANDONADO,1609459247684,"2021-01-01 00:00:47",NULL,5001,,NULL,"APT 201 EDF, // PITAR // SERVICIO MENSAJERIA",6.18852929,NULL,-75.65990367,NULL,EFECTIVO,,RECEPCION,NULL,NULL,NULL,NORMAL,TIEMPO_RUTA,,0,9397396,NULL,9397396,NULL,NULL,NULL,"cl 37 b sur # 83 - impar",NULL,"SAN ANTONIO DE PRADO DOS MESAS",NULL,NULL,NULL,NULL,NULL,NULL,NULL,NULL,NULL,NULL,NULL,NULL
45691558,NULL,NULL,180,NULL,NULL,NULL,NULL,18300,60,NULL,"Iglesia Madre del Divino Amor Bogota","cl 4c bis # 50 - 52",ABANDONADO,1609459248680,"2021-01-01 00:00:48",NULL,11001,NULL,NULL,NULL,4.619324153146982,4.54628,-74.11358714103699,-74.08079,EFECTIVO,NULL,APP,NULL,NULL,0,NORMAL,TIEMPO_RUTA,NORMAL,0,8978251,NULL,NULL,NULL,NULL,NULL,"cl 4 c bis # 50 - par",NULL,BARCELONA,NULL,NULL,NULL,NULL,NULL,NULL,NULL,NULL,NULL,NULL,NULL,NULL
45691559,NULL,NULL,180,NULL,NULL,NULL,NULL,7300,60,NULL,"CL 39A Sur # 6 - 50 Este","calle 69 sur # 11d - 15...",ABANDONADO,1609459248858,"2021-01-01 00:00:48",NULL,11001,NULL,NULL,NULL,4.524534399000061,4.550724610306457,-74.09104267799995,-74.09056607633829,EFECTIVO,NULL,APP,NULL,NULL,0,NORMAL,TIEMPO_RUTA,NORMAL,0,8813738,NULL,NULL,NULL,NULL,NULL,"cl 69 sur # 11 d - impar",NULL,"SANTA MARTA",NULL,NULL,NULL,NULL,NULL,NULL,NULL,NULL,NULL,NULL,NULL,NULL
45691560,NULL,NULL,180,NULL,NULL,NULL,NULL,10200,60,NULL,"Instituto Leonard Euler","cl 52 sur # 95a - 10",ABANDONADO,1609459248985,"2021-01-01 00:00:49",NULL,11001,NULL,NULL,NULL,4.640460501716004,4.608040199999999,-74.18457582592963,-74.1691551,EFECTIVO,NULL,APP,NULL,NULL,0,NORMAL,TIEMPO_RUTA,NORMAL,0,9397397,NULL,NULL,NULL,NULL,NULL,"cl 52 sur # 95 a - par",NULL,"PARCELA EL PORVENIR",NULL,NULL,NULL,NULL,NULL,NULL,NULL,NULL,NULL,NULL,NULL,NULL
45691561,NULL,135975,90,NULL,5,150041469288642828960,NULL,NULL,32,NULL,,"cra. 29 no3242, cali, valle del cauca, colombia",ABORDOCONFIRMADO,1609459249445,"2021-01-01 00:00:49",NULL,76001,NULL,NULL,NULL,3.4250689,3.4927394,-76.503465,-76.5160093,VALE,9870822,CALLE,VCS030,NULL,NULL,NORMAL,TIEMPO_RUTA,,0,16778186,NULL,NULL,150041469288642828960,NULL,NULL," cra  29  no 3242   cali  valle del cauca  colombia ",NULL," cra  29  no 3242   cali  valle del cauca  colombia ",NULL,NULL,NULL,NULL,NULL,NULL,NULL,NULL,NULL,NULL,NULL,NULL
45691562,NULL,162169,180,NULL,5,101284913561992433491,...,19100,60,NULL,"CL 77A # KR 115 (BOGOTA)","kr 7c # 127 - 44",CUMPLIDO,1609459249758,"2021-01-01 00:00:49",NULL,11001,NULL,NULL,NULL,4.703428006246004,4.719838196000069,-74.0309365466237,-74.12582074199992,EFECTIVO,NULL,APP,FVL507,4,1000,NORMAL,TIEMPO_RUTA,NORMAL,0,9380444,NULL,NULL,101284913561992433491,NULL,NULL,"kr 7 c # 127 - par","Pago definido/preliquidado por 19100","BELLA SUIZA",NULL,NULL,NULL,NULL,NULL,NULL,NULL,NULL,NULL,NULL,NULL,NULL
45691563,NULL,NULL,180,NULL,NULL,NULL,NULL,33700,60,NULL,"kr 8f # 166 - 34","cl 34 bis sur # 95a - 50",ABANDONADO,1609459250081,"2021-01-01 00:00:50",NULL,11001,NULL,NULL,NULL,4.648261822756404,4.744223626000064,-74.17157683521508,-74.0283713579999,EFECTIVO,NULL,APP,NULL,NULL,0,NORMAL,TIEMPO_RUTA,NORMAL,0,9277015,NULL,NULL,NULL,NULL,NULL,"cl 34 bis sur # 95 a - par",NULL,"LOS PANTANOS",NULL,NULL,NULL,NULL,NULL,NULL,NULL,NULL,NULL,NULL,NULL,NULL
45691564,NULL,NULL,180,NULL,NULL,NULL,NULL,4800,60,NULL,"KR 71 # 62B - 35 Sur","kr 73f # 62a - 15 sur",ABANDONADO,1609459250380,"2021-01-01 00:00:50",NULL,11001,NULL,NULL,NULL,4.59041304127281,4.590154369918056,-74.17090326547623,-74.16364621371031,EFECTIVO,NULL,APP,NULL,NULL,1000,NORMAL,TIEMPO_RUTA,NORMAL,0,8826632,NULL,NULL,NULL,NULL,NULL,"kr 73 f # 62 a sur - impar",NULL,GALICIA,NULL,NULL,NULL,NULL,NULL,NULL,NULL,NULL,NULL,NULL,NULL,NULL
45691565,NULL,NULL,180,NULL,NULL,NULL,NULL,5600,60,NULL,"carrera 15f # 80 - 53 sur","kr 17b # 66a - 19 sur",ABANDONADO,1609459250479,"2021-01-01 00:00:50",NULL,11001,NULL,NULL,NULL,4.551724593347381,4.535811434000038,-74.13788828998804,-74.13796609199994,EFECTIVO,NULL,APP,NULL,NULL,0,NORMAL,TIEMPO_RUTA,NORMAL,0,9060653,NULL,NULL,NULL,NULL,NULL,"kr 17 b # 66 a sur - impar",NULL,"LA ALAMEDA",NULL,NULL,NULL,NULL,NULL,NULL,NULL,NULL,NULL,NULL,NULL,NULL
45691566,NULL,NULL,180,NULL,NULL,NULL,NULL,12000,60,NULL,"cl 2f # 39a - 85","kr 82 # 8c - 5",ABANDONADO,1609459250967,"2021-01-01 00:00:51",NULL,11001,NULL,NULL,NULL,4.646300000000017,4.611349655000083,-74.1473,-74.11187529499995,EFECTIVO,NULL,APP,NULL,NULL,2000,NORMAL,TIEMPO_RUTA,NORMAL,0,9087456,NULL,NULL,NULL,NULL,NULL,"kr 82 # 8 c - impar",NULL,VALLADOLID,NULL,NULL,NULL,NULL,NULL,NULL,NULL,NULL,NULL,NULL,NULL,NULL
45691567,621,NULL,90,NULL,NULL,NULL,NULL,NULL,60,,NULL,"cra. 88 d 57 45 sur",ABANDONADO,1609459251198,"2021-01-01 00:00:51",NULL,11001,17089078,NULL,CASA,4.62754846,NULL,-74.18870137,NULL,EFECTIVO,,RECEPCION,NULL,NULL,NULL,NORMAL,TIEMPO_RUTA,,0,8957176,NULL,8957176,NULL,NULL,NULL,"kr 88 d # 57 sur - impar",NULL,"LA LIBERTAD",NULL,NULL,NULL,NULL,NULL,NULL,NULL,NULL,NULL,NULL,NULL,NULL
45691568,NULL,NULL,180,NULL,NULL,NULL,NULL,29500,60,NULL,"calle 50a bis sur","ac 26 # 82 - 54",ABANDONADO,1609459251668,"2021-01-01 00:00:51",NULL,11001,NULL,NULL,NULL,4.6750663624330056,4.539780299999999,-74.11701936274767,-74.09778,EFECTIVO,NULL,APP,NULL,NULL,0,NORMAL,TIEMPO_RUTA,NORMAL,0,9121491,NULL,NULL,NULL,NULL,NULL,"ac 26 # 82 - par",NULL,"SAN IGNACIO",NULL,NULL,NULL,NULL,NULL,NULL,NULL,NULL,NULL,NULL,NULL,NULL
45691569,NULL,132854,180,NULL,NULL,152718568006146891618,...,4900,60,NULL,""KR 13 # 74C - 25 Sur"","Cra. 1 Bis AEste #73-21, Bogotá, Colombia",CANCELADO,1609459250083,"2021-01-01 00:00:50",NULL,11001,NULL,NULL,NULL,4.5015943,4.5149743063833006,-74.1168004,-74.11601152271032,EFECTIVO,NULL,TABLETS,WNU623,NULL,NULL,NULL,TIEMPO_RUTA,NULL,0,NULL,NULL,NULL,152718568006146891618,NULL,USU|null,"Cra. 1 Bis AEste #73-21, Bogotá, Colombia","Banderazo:2500,Metros:1638,Minutos:7,",NULL,NULL,NULL,NULL,NULL,NULL,NULL,NULL,NULL,NULL,NULL,NULL,NULL
45691570,NULL,NULL,180,NULL,NULL,NULL,NULL,15900,32,NULL,"Edificio Mall Torres de La 50","kr 99 # 2 - 140",ABANDONADO,1609459252154,"2021-01-01 00:00:52",NULL,76001,NULL,NULL,NULL,3.371116870421412,3.410535,-76.55177045613527,-76.539975,TARJETA,NULL,APP,NULL,NULL,0,NORMAL,TIEMPO_RUTA,LUJO,0,8894877,NULL,NULL,NULL,NULL,NULL,"kr 99 # 2 - par",NULL,"URBANIZACION SANTA HELENA",NULL,NULL,NULL,NULL,NULL,NULL,NULL,NULL,NULL,NULL,NULL,NULL
45691571,NULL,NULL,180,NULL,NULL,NULL,NULL,4800,60,NULL,"cl 71 # 59a - 27","cl 76 # 55 - 34",ABANDONADO,1609459253053,"2021-01-01 00:00:53",NULL,11001,NULL,NULL,NULL,4.67377616698941,4.672405382000079,-74.07408021390437,-74.0801930799999,EFECTIVO,NULL,APP,NULL,NULL,0,NORMAL,TIEMPO_RUTA,NORMAL,0,8875799,NULL,NULL,NULL,NULL,NULL,"cl 76 # 55 - par",NULL,"JORGE ELIECER GAITAN",NULL,NULL,NULL,NULL,NULL,NULL,NULL,NULL,NULL,NULL,NULL,NULL
45691572,NULL,NULL,180,NULL,NULL,NULL,NULL,NULL,60,NULL,NULL,"ak 60 # 22 - 75",ABANDONADO,1609459253537,"2021-01-01 00:00:53",NULL,11001,NULL,NULL,NULL,4.641320004669087,NULL,-74.1050023958087,NULL,EFECTIVO,NULL,APP,NULL,NULL,3000,NORMAL,TIEMPO_RUTA,NORMAL,0,8403054,NULL,NULL,NULL,NULL,NULL,"ak 60 # 22 - impar",NULL,"CIUDAD SALITRE SUR-ORIENTAL",NULL,NULL,NULL,NULL,NULL,NULL,NULL,NULL,NULL,NULL,NULL,NULL
45691573,NULL,NULL,180,NULL,NULL,NULL,NULL,11000,60,NULL,"Ciudad Bolívar","kr 34b # 37 - 21 sur",ABANDONADO,1609459253704,"2021-01-01 00:00:53",NULL,11001,NULL,NULL,NULL,4.591818353648109,4.55367,-74.12143729627132,-74.14648,EFECTIVO,NULL,APP,NULL,NULL,0,NORMAL,TIEMPO_RUTA,NORMAL,0,2025758,NULL,NULL,NULL,NULL,NULL,"kr 34 b # 37 sur - impar",NULL,"CIUDAD VILLAMAYOR ANTIGUA",NULL,NULL,NULL,NULL,NULL,NULL,NULL,NULL,NULL,NULL,NULL,NULL
45691574,NULL,NULL,180,NULL,NULL,NULL,NULL,23600,60,NULL,"Portal 20 De Julio - Transmilenio","kr 100 # 23h - 66",ABANDONADO,1609459253837,"2021-01-01 00:00:53",NULL,11001,NULL,NULL,NULL,4.680831278177818,4.564963770594352,-74.13469545543194,-74.09653518539845,EFECTIVO,NULL,APP,NULL,NULL,0,NORMAL,TIEMPO_RUTA,NORMAL,0,8594975,NULL,NULL,NULL,NULL,NULL,"kr 100 # 23 h - par",NULL,"EL RINCON",NULL,NULL,NULL,NULL,NULL,NULL,NULL,NULL,NULL,NULL,NULL,NULL
45691575,NULL,NULL,180,NULL,NULL,NULL,NULL,11000,60,NULL,"carrera 108 81a-55","cl 142 # 102b - 44",CANCELADO,1609459254636,"2021-01-01 00:00:54",NULL,11001,NULL,NULL,NULL,4.744476640000073,4.71786,-74.09433155999994,-74.11403,EFECTIVO,NULL,APP,NULL,NULL,2000,NORMAL,TIEMPO_RUTA,NORMAL,0,8587090,NULL,NULL,NULL,NULL,"USU|AppUsuario|Antes de asignacion","cl 142 # 102 b - par",NULL,BOCHALEMA,NULL,NULL,NULL,NULL,NULL,NULL,NULL,NULL,NULL,NULL,NULL,NULL
45691576,NULL,NULL,180,NULL,NULL,NULL,NULL,22400,60,NULL,"calle 71 # 69m - 38","cl 62 sur # 81d - 89",ABANDONADO,1609459255575,"2021-01-01 00:00:55",NULL,11001,NULL,NULL,NULL,4.61294148551131,4.682341690000044,-74.18674305081367,-74.09187092199994,EFECTIVO,NULL,APP,NULL,NULL,0,NORMAL,TIEMPO_RUTA,NORMAL,0,8843196,NULL,NULL,NULL,NULL,NULL,"cl 62 sur # 81 d - impar",NULL,BOSA,NULL,NULL,NULL,NULL,NULL,NULL,NULL,NULL,NULL,NULL,NULL,NULL
45691577,NULL,NULL,180,NULL,NULL,NULL,NULL,15000,60,NULL,"calle 48g bis sur # 9 - 59","kr 1 este # 12c - 42",ABANDONADO,1609459255981,"2021-01-01 00:00:56",NULL,11001,NULL,NULL,NULL,4.5975030729539155,4.560463216000073,-74.06787559390068,-74.11508787199995,EFECTIVO,NULL,APP,NULL,NULL,0,NORMAL,TIEMPO_RUTA,PREMIUM,0,9187610,NULL,NULL,NULL,NULL,NULL,"kr 1 este # 12 c - par",NULL,"LAS AGUAS",NULL,NULL,NULL,NULL,NULL,NULL,NULL,NULL,NULL,NULL,NULL,NULL
45691578,NULL,NULL,180,NULL,NULL,NULL,NULL,7300,60,NULL,"Colegio Distrital Carlos Albán Holguín I.E.D.","cl 73 sur # 94a - 35",ABANDONADO,1609459255974,"2021-01-01 00:00:56",NULL,11001,NULL,NULL,NULL,4.629033223692174,4.60539,-74.20283664017916,-74.1972,EFECTIVO,NULL,APP,NULL,NULL,0,NORMAL,TIEMPO_RUTA,NORMAL,0,9205676,NULL,NULL,NULL,NULL,NULL,"cl 73 sur # 94 a - impar",NULL,"SAN BERNARDINO XIX",NULL,NULL,NULL,NULL,NULL,NULL,NULL,NULL,NULL,NULL,NULL,NULL
45691579,NULL,NULL,180,NULL,NULL,NULL,NULL,13000,60,NULL,"Surtimayorista Zarzamo","ac 138 # 59a - 98",CANCELADO,1609459256079,"2021-01-01 00:00:56",NULL,11001,NULL,NULL,NULL,4.729800398272845,4.6981,-74.06822863966227,-74.1094,EFECTIVO,NULL,APP,NULL,NULL,1000,NORMAL,TIEMPO_RUTA,NORMAL,0,956934,NULL,NULL,NULL,NULL,"USU|AppUsuario|Antes de asignacion","ac 138 # 59 a - par",NULL,ATENAS,NULL,NULL,NULL,NULL,NULL,NULL,NULL,NULL,NULL,NULL,NULL,NULL
45691580,NULL,NULL,180,NULL,NULL,NULL,NULL,19800,60,NULL," carrera 90a","kr 18 # 33 - 12",ABANDONADO,1609459256316,"2021-01-01 00:00:56",NULL,11001,NULL,NULL,NULL,4.622176,4.636001499999999,-74.0732016,-74.1786528,TARJETA,NULL,APP,NULL,NULL,0,NORMAL,TIEMPO_RUTA,NORMAL,0,9120963,NULL,NULL,NULL,NULL,NULL,"kr 18 # 33 - par",NULL,TEUSAQUILLO,NULL,NULL,NULL,NULL,NULL,NULL,NULL,NULL,NULL,NULL,NULL,NULL
45691581,NULL,NULL,180,NULL,NULL,NULL,NULL,21800,60,NULL,"CL 156B # 100 - 66","cl 69b # 121 - 66",ABANDONADO,1609459256558,"2021-01-01 00:00:56",NULL,11001,NULL,NULL,NULL,4.716912046789396,4.756229171000086,-74.13807973265648,-74.08726387099995,EFECTIVO,NULL,APP,NULL,NULL,0,NORMAL,TIEMPO_RUTA,NORMAL,0,9397394,NULL,NULL,NULL,NULL,NULL,"cl 69 b # 121 - par",NULL,"LA FAENA",NULL,NULL,NULL,NULL,NULL,NULL,NULL,NULL,NULL,NULL,NULL,NULL
45691582,NULL,121032,180,NULL,NULL,14782941401826092,...,13000,60,NULL,"Penitenciaría Central La Picota","kr 8 # 0 - 35 sur",CANCELADO,1609459257138,"2021-01-01 00:00:57",NULL,11001,NULL,NULL,NULL,4.586993826170184,4.551,-74.08341832458973,-74.11833,EFECTIVO,NULL,APP,TAZ342,NULL,0,NORMAL,TIEMPO_RUTA,NORMAL,0,9397398,NULL,NULL,14782941401826092,NULL,"CON|Usuario Se fue","kr 8 # 0 sur - impar",NULL,"MODELO SUR",NULL,NULL,NULL,NULL,NULL,NULL,NULL,NULL,NULL,NULL,NULL,NULL
45691583,NULL,NULL,180,NULL,NULL,NULL,NULL,11400,60,NULL,"Calle 9 Sur # 20 - 35","kr 73b bis a # 36 - 41 sur",ABANDONADO,1609459257232,"2021-01-01 00:00:57",NULL,11001,NULL,NULL,NULL,4.61943309812472,4.59055234200008,-74.14771590381861,-74.09805513599991,TARJETA,NULL,APP,NULL,NULL,0,NORMAL,TIEMPO_RUTA,NORMAL,0,8412332,NULL,NULL,NULL,NULL,NULL,"kr 73 b bis a # 36 sur - impar",NULL,"SUPER MANZANA 3",NULL,NULL,NULL,NULL,NULL,NULL,NULL,NULL,NULL,NULL,NULL,NULL
45691584,NULL,NULL,180,NULL,NULL,NULL,NULL,19300,60,NULL,"CL 75A Sur # 13 - 23","cl 2 sur # 72b - 58",ABANDONADO,1609459257267,"2021-01-01 00:00:57",NULL,11001,NULL,NULL,NULL,4.621919445212948,4.513841914961421,-74.14061408489943,-74.1154757514596,EFECTIVO,NULL,APP,NULL,NULL,0,NORMAL,TIEMPO_RUTA,NORMAL,0,8190529,NULL,NULL,NULL,NULL,NULL,"cl 2 sur # 72 b - par",NULL,"AMERICAS OCCIDENTAL",NULL,NULL,NULL,NULL,NULL,NULL,NULL,NULL,NULL,NULL,NULL,NULL
45691585,NULL,NULL,180,NULL,NULL,NULL,NULL,9100,60,NULL,"Calle 73D Sur 1D E-1","cl 50a sur # 10b - 4",ABANDONADO,1609459257632,"2021-01-01 00:00:57",NULL,11001,NULL,NULL,NULL,4.559339391870077,4.51793,-74.12218865007162,-74.11388,EFECTIVO,NULL,APP,NULL,NULL,0,NORMAL,TIEMPO_RUTA,NORMAL,0,8856930,NULL,NULL,NULL,NULL,NULL,"cl 50 a sur # 10 b - par",NULL,GUIPARMA,NULL,NULL,NULL,NULL,NULL,NULL,NULL,NULL,NULL,NULL,NULL,NULL
45691586,NULL,NULL,90,NULL,NULL,NULL,NULL,NULL,32,"SAN FERNANDO NUEVO",NULL,"cl. 5 b4 # 38 - 123",ABANDONADO,1609459257627,"2021-01-01 00:00:57",NULL,76001,Sip/Cali_4444444,NULL,"UNIDAD RENAL  FRESENIUS - ENAL  FRESENIUS",3.42485702,NULL,-76.54369355,NULL,EFECTIVO,NULL,IVR,NULL,NULL,NULL,NORMAL,TIEMPO_RUTA,NORMAL,0,4369905,NULL,4369905,NULL,NULL,NULL,"cl 5 b4 # 38 - impar",NULL,"SAN FERNANDO NUEVO",NULL,NULL,NULL,NULL,NULL,NULL,NULL,NULL,NULL,NULL,NULL,NULL
45691587,NULL,NULL,180,NULL,NULL,NULL,NULL,34200,60,NULL,Morella,"colegio miravalle",ABANDONADO,1609459257738,"2021-01-01 00:00:57",NULL,11001,NULL,NULL,NULL,4.51336,4.5829,-74.12006,-74.19741,EFECTIVO,NULL,APP,NULL,NULL,0,NORMAL,TIEMPO_RUTA,NORMAL,0,9347772,NULL,NULL,NULL,NULL,NULL," colegio miravalle ",NULL,"SIN BARRIO",NULL,NULL,NULL,NULL,NULL,NULL,NULL,NULL,NULL,NULL,NULL,NULL
45691588,NULL,NULL,90,NULL,NULL,NULL,NULL,NULL,32,NULL,NULL,"av 7 # 20 06",ABANDONADO,1609459257819,"2021-01-01 00:00:57",NULL,76001,Sip/Cali_4444444,NULL,NULL,3.46094077,NULL,-76.53142736,NULL,EFECTIVO,NULL,IVR,NULL,NULL,NULL,NORMAL,TIEMPO_RUTA,NORMAL,0,4917952,NULL,4917952,NULL,NULL,NULL,"av 7 # 20 norte - par",NULL,GRANADA,NULL,NULL,NULL,NULL,NULL,NULL,NULL,NULL,NULL,NULL,NULL,NULL
45691589,NULL,NULL,180,NULL,NULL,NULL,NULL,11200,60,NULL,"CL 44 BIS Sur # 78N - 24","cl 12c # 71c - 8",ABANDONADO,1609459257877,"2021-01-01 00:00:57",NULL,11001,NULL,NULL,NULL,4.6428177829746495,4.617161291106719,-74.12616401910782,-74.16484113782643,EFECTIVO,NULL,APP,NULL,NULL,0,NORMAL,TIEMPO_RUTA,NORMAL,0,4693147,NULL,NULL,NULL,NULL,NULL,"cl 12 c # 71 c - par",NULL,"VILLA ALSACIA",NULL,NULL,NULL,NULL,NULL,NULL,NULL,NULL,NULL,NULL,NULL,NULL
45691590,NULL,145107,180,NULL,NULL,153339354980472250954,...,12500,60,NULL,"calle 70b # 110 - 28","cl 144 # 141b - 25",CANCELADO,1609459257970,"2021-01-01 00:00:58",NULL,11001,NULL,NULL,NULL,4.752303314902515,4.707257713000047,-74.11461476236583,-74.1271268509999,EFECTIVO,NULL,APP,WPP084,NULL,0,NORMAL,TIEMPO_RUTA,NORMAL,0,9110155,NULL,NULL,153339354980472250954,NULL,"USU|AppUsuario|Ya no necesito el Taxi","cl 144 # 141 b - impar",NULL,"BILBAO I SECTOR",NULL,NULL,NULL,NULL,NULL,NULL,NULL,NULL,NULL,NULL,NULL,NULL
45691591,NULL,NULL,180,NULL,NULL,NULL,NULL,4800,60,NULL,"CL 43 Sur # 6 - 72 Este","kr 3a este # 40 - 3 sur",ABANDONADO,1609459258808,"2021-01-01 00:00:58",NULL,11001,NULL,NULL,NULL,4.551322193921747,4.547122387157806,-74.09430842846632,-74.09174725413322,EFECTIVO,NULL,APP,NULL,NULL,0,NORMAL,TIEMPO_RUTA,NORMAL,0,9161722,NULL,NULL,NULL,NULL,NULL,"kr 3 a este # 40 sur - impar",NULL,"LA VICTORIA",NULL,NULL,NULL,NULL,NULL,NULL,NULL,NULL,NULL,NULL,NULL,NULL
45691592,NULL,NULL,180,NULL,NULL,NULL,NULL,16000,60,NULL,"CL 17 Sur # 18 - 13","kr 81h # 51c - 3 sur",ABANDONADO,1609459259148,"2021-01-01 00:00:59",NULL,11001,NULL,NULL,NULL,4.621358346947849,4.585556423000071,-74.17552806437016,-74.10084140799995,EFECTIVO,NULL,APP,NULL,NULL,6000,NORMAL,TIEMPO_RUTA,NORMAL,0,9386500,NULL,NULL,NULL,NULL,NULL,"kr 81 h # 51 c sur - impar",NULL,"GRAN BRITALIA",NULL,NULL,NULL,NULL,NULL,NULL,NULL,NULL,NULL,NULL,NULL,NULL
45691593,NULL,151252,180,NULL,NULL,108864089765479696832,...,12900,60,NULL,"kr 57 # 22b - 41","kr 78a # 36 - 24 sur",CANCELADO,1609459259544,"2021-01-01 00:00:59",NULL,11001,NULL,NULL,NULL,4.622076178359497,4.641972630000055,-74.15005143731833,-74.10211300799995,EFECTIVO,NULL,APP,VEG302,NULL,2000,NORMAL,TIEMPO_RUTA,NORMAL,0,9342725,NULL,NULL,108864089765479696832,NULL,"USU|AppUsuario|Ya no necesito el Taxi","kr 78 a # 36 sur - par",NULL,"SUPER MANZANA 6",NULL,NULL,NULL,NULL,NULL,NULL,NULL,NULL,NULL,NULL,NULL,NULL
45691594,NULL,NULL,180,NULL,NULL,NULL,NULL,6200,60,NULL,"Cai Vista Hermosa","dg 62 sur # 19b - 76",CANCELADO,1609459260276,"2021-01-01 00:01:00",NULL,11001,NULL,NULL,NULL,4.56209733007194,4.54711,-74.14049103856087,-74.14803,EFECTIVO,NULL,APP,NULL,NULL,0,NORMAL,TIEMPO_RUTA,NORMAL,0,9263183,NULL,NULL,NULL,NULL,"USU|AppUsuario|Antes de asignacion","dg 62 sur # 19 b - par",NULL,"LA ACASIA SUR",NULL,NULL,NULL,NULL,NULL,NULL,NULL,NULL,NULL,NULL,NULL,NULL
45691595,NULL,NULL,180,NULL,NULL,NULL,NULL,18100,60,NULL,"Barrio la coruna","cl 18 # 99 - 2",ABANDONADO,1609459260478,"2021-01-01 00:01:00",NULL,11001,NULL,NULL,NULL,4.6733628093868305,4.578805600004414,-74.14426021277905,-74.15251259757385,EFECTIVO,NULL,APP,NULL,NULL,0,NORMAL,TIEMPO_RUTA,NORMAL,0,9194488,NULL,NULL,NULL,NULL,NULL,"cl 18 # 99 - par",NULL,"CENTRO FONTIBON",NULL,NULL,NULL,NULL,NULL,NULL,NULL,NULL,NULL,NULL,NULL,NULL
45691596,NULL,NULL,180,NULL,NULL,NULL,NULL,12100,60,NULL,"Barrio tintala","kr 64a # 2c - 56",ABANDONADO,1609459260755,"2021-01-01 00:01:00",NULL,11001,NULL,NULL,NULL,4.62153847324097,4.649429656106338,-74.12234656512739,-74.15592088352861,EFECTIVO,NULL,APP,NULL,NULL,1000,NORMAL,TIEMPO_RUTA,NORMAL,0,9397331,NULL,NULL,NULL,NULL,NULL,"kr 64 a # 2 c - par",NULL,GALAN,NULL,NULL,NULL,NULL,NULL,NULL,NULL,NULL,NULL,NULL,NULL,NULL
45691597,NULL,153650,90,NULL,5,113106400030482898890,NULL,NULL,32,NULL,,"cra. 38 bis no5b2-04, cali, valle del cauca, colombia",CONFIRMADO,1609459261633,"2021-01-01 00:01:01",NULL,76001,NULL,NULL,NULL,3.4262374,3.4262279,-76.5449687,-76.5452054,VALE,9948131,CALLE,EQK762,NULL,NULL,NORMAL,TIEMPO_RUTA,,0,94379268,NULL,NULL,113106400030482898890,NULL,NULL,"kr 38 bis # 5 b2 - par",NULL,"SAN FERNANDO NUEVO",NULL,NULL,NULL,NULL,NULL,NULL,NULL,NULL,NULL,NULL,NULL,NULL
45691598,NULL,NULL,90,NULL,NULL,NULL,NULL,NULL,60,,NULL,"cl. 152 f  # 136 c 15",ABANDONADO,1609459261668,"2021-01-01 00:01:01",NULL,11001,17089098,NULL,CASA,4.7599333,NULL,-74.10582434,NULL,EFECTIVO,NULL,IVR,NULL,NULL,NULL,NORMAL,TIEMPO_RUTA,NORMAL,0,7899604,NULL,7899604,NULL,NULL,NULL,"cl 152 f # 136 c - impar",NULL,"COMPARTIR SUBA",NULL,NULL,NULL,NULL,NULL,NULL,NULL,NULL,NULL,NULL,NULL,NULL
45691599,NULL,NULL,180,NULL,NULL,NULL,NULL,15900,60,NULL,"Carrera 115 # 153 - 27","cl 127a bis a # 15 - 58",ABANDONADO,1609459261734,"2021-01-01 00:01:01",NULL,11001,NULL,NULL,NULL,4.7070852710000395,4.759041593000063,-74.04340097399995,-74.09952637599991,EFECTIVO,NULL,APP,NULL,NULL,0,NORMAL,TIEMPO_RUTA,NORMAL,0,9079778,NULL,NULL,NULL,NULL,NULL,"cl 127 a bis a # 15 - par",NULL,PLENITUD,NULL,NULL,NULL,NULL,NULL,NULL,NULL,NULL,NULL,NULL,NULL,NULL
45691600,NULL,126764,180,4,NULL,158698983451369651237,...,21600,60,NULL,"CL 57A SUR # KR 93C (BOGOTA)","cl 87 # 87a - 12",CUMPLIDO,1609459261791,"2021-01-01 00:01:01",NULL,11001,NULL,NULL,NULL,4.709253836184082,4.633623873710895,-74.09798204898834,-74.19211719185114,EFECTIVO,NULL,APP,WDE667,4,0,NORMAL,TIEMPO_RUTA,NORMAL,0,9090784,NULL,NULL,158698983451369651237,NULL,NULL,"cl 87 # 87 a - par","Pago definido/preliquidado por 21600","LOS CEREZOS",NULL,NULL,NULL,NULL,NULL,NULL,NULL,NULL,NULL,NULL,NULL,NULL
45691601,NULL,NULL,180,NULL,NULL,NULL,NULL,18100,60,NULL,"Calle 78 Sur # 18D - 84","kr 81j # 57d - 2 sur",ABANDONADO,1609459261900,"2021-01-01 00:01:01",NULL,11001,NULL,NULL,NULL,4.6161102,4.540018590000045,-74.182788,-74.14627607599994,EFECTIVO,NULL,APP,NULL,NULL,0,NORMAL,TIEMPO_RUTA,NORMAL,0,9027260,NULL,NULL,NULL,NULL,NULL,"kr 81 j # 57 d sur - par",NULL,"LAS VEGAS DE SANTA ANA",NULL,NULL,NULL,NULL,NULL,NULL,NULL,NULL,NULL,NULL,NULL,NULL
45691602,NULL,NULL,180,NULL,NULL,NULL,NULL,4800,60,NULL,"CL 49H Sur # 9 - 2","cl 49h sur # 10c - 19",ABANDONADO,1609459263253,"2021-01-01 00:01:03",NULL,11001,NULL,NULL,NULL,4.55991457592932,4.557952397619617,-74.12110168486834,-74.12051931023598,EFECTIVO,NULL,APP,NULL,NULL,0,NORMAL,TIEMPO_RUTA,NORMAL,0,8742209,NULL,NULL,NULL,NULL,NULL,"cl 49 h sur # 10 c - impar",NULL,GUIPARMA,NULL,NULL,NULL,NULL,NULL,NULL,NULL,NULL,NULL,NULL,NULL,NULL
45691603,NULL,NULL,180,NULL,NULL,NULL,NULL,21500,60,NULL,"carrera 95a # 34 - 39 sur","dg 78 bis # 55 - 63",ABANDONADO,1609459263561,"2021-01-01 00:01:03",NULL,11001,NULL,NULL,NULL,4.67474022156621,4.6473267730000885,-74.07338283956051,-74.17075853599994,EFECTIVO,NULL,APP,NULL,NULL,0,NORMAL,TIEMPO_RUTA,NORMAL,0,8826468,NULL,NULL,NULL,NULL,NULL,"dg 78 bis # 55 - impar",NULL,"JORGE ELIECER GAITAN",NULL,NULL,NULL,NULL,NULL,NULL,NULL,NULL,NULL,NULL,NULL,NULL
45691604,NULL,NULL,180,NULL,NULL,NULL,NULL,21400,60,NULL,"Centro Comercial Automotriz Carrera","kr 118 # 75 - 3",ABANDONADO,1609459264024,"2021-01-01 00:01:04",NULL,11001,NULL,NULL,NULL,4.719803025236464,4.62644,-74.13047567009926,-74.10848,EFECTIVO,NULL,APP,NULL,NULL,0,NORMAL,TIEMPO_RUTA,NORMAL,0,9389104,NULL,NULL,NULL,NULL,NULL,"kr 118 # 75 - impar",NULL,"CENTRO ENGATIVA",NULL,NULL,NULL,NULL,NULL,NULL,NULL,NULL,NULL,NULL,NULL,NULL
45691605,NULL,NULL,180,NULL,NULL,NULL,NULL,12400,60,NULL,"Biblioteca Pública El Tintal Manuel Zapata Olivella","cl 1 # 52 - 84",ABANDONADO,1609459264029,"2021-01-01 00:01:04",NULL,11001,NULL,NULL,NULL,4.61069906653603,4.64266,-74.12035435438156,-74.15417,EFECTIVO,NULL,APP,NULL,NULL,4000,NORMAL,TIEMPO_RUTA,NORMAL,0,8671892,NULL,NULL,NULL,NULL,NULL,"cl 1 # 52 - par",NULL,PONDEROSA,NULL,NULL,NULL,NULL,NULL,NULL,NULL,NULL,NULL,NULL,NULL,NULL
45691606,621,NULL,90,NULL,NULL,NULL,NULL,NULL,60,,NULL,"cra. 88 d 57 45 sur",CANCELADO,1609459263945,"2021-01-01 00:01:04",NULL,11001,,NULL,CASA,4.62754846,NULL,-74.18870137,NULL,EFECTIVO,,RECEPCION,NULL,NULL,NULL,NORMAL,TIEMPO_RUTA,,0,8957176,NULL,8957176,NULL,NULL,NULL,"kr 88 d # 57 sur - impar",NULL,"LA LIBERTAD",NULL,NULL,NULL,NULL,NULL,NULL,NULL,NULL,NULL,NULL,NULL,NULL
45691607,NULL,NULL,180,NULL,NULL,NULL,NULL,9300,60,NULL,"AC 68 Sur # 51 - 15","cl 70a bis sur # 78c - 39",ABANDONADO,1609459264313,"2021-01-01 00:01:04",NULL,11001,NULL,NULL,NULL,4.603293686605727,4.581321388745868,-74.19282395392656,-74.15797803550959,EFECTIVO,NULL,APP,NULL,NULL,0,NORMAL,TIEMPO_RUTA,NORMAL,0,9372533,NULL,NULL,NULL,NULL,NULL,"cl 70 a bis sur # 78 c - impar",NULL,"EL RETAZO",NULL,NULL,NULL,NULL,NULL,NULL,NULL,NULL,NULL,NULL,NULL,NULL
45691608,NULL,NULL,180,NULL,NULL,NULL,NULL,18100,60,NULL,"CL 31 Sur # 5A - 27","cl 42b sur # 81l - 13",ABANDONADO,1609459264338,"2021-01-01 00:01:04",NULL,11001,NULL,NULL,NULL,4.6278201402008206,4.565613401000064,-74.16722226887941,-74.09855791099994,EFECTIVO,NULL,APP,NULL,NULL,0,NORMAL,TIEMPO_RUTA,NORMAL,0,8877274,NULL,NULL,NULL,NULL,NULL,"cl 42 b sur # 81 l - impar",NULL,"EL AMPARO",NULL,NULL,NULL,NULL,NULL,NULL,NULL,NULL,NULL,NULL,NULL,NULL
45691609,548,NULL,90,NULL,NULL,NULL,NULL,NULL,60,,NULL,"cl. 74 11 45",ABANDONADO,1609459264345,"2021-01-01 00:01:04",NULL,11001,17089079,NULL,"APT 303",4.65924891,NULL,-74.05792839,NULL,EFECTIVO,,RECEPCION,NULL,NULL,NULL,NORMAL,TIEMPO_RUTA,,0,6974650,NULL,6974650,NULL,NULL,NULL,"cl 74 # 11 - impar",NULL,"LA PORCIUNCULA",NULL,NULL,NULL,NULL,NULL,NULL,NULL,NULL,NULL,NULL,NULL,NULL
45691610,NULL,NULL,180,NULL,NULL,NULL,NULL,8300,60,NULL,"Carrera 73 48-36","kr 57 bis # 57b - 63",ABANDONADO,1609459264486,"2021-01-01 00:01:04",NULL,11001,NULL,NULL,NULL,4.652197371824617,4.66904,-74.08837739378214,-74.11151,EFECTIVO,NULL,APP,NULL,NULL,0,NORMAL,TIEMPO_RUTA,NORMAL,0,9382341,NULL,NULL,NULL,NULL,NULL,"kr 57 bis # 57 b - impar",NULL,"PAULO VI",NULL,NULL,NULL,NULL,NULL,NULL,NULL,NULL,NULL,NULL,NULL,NULL
45691611,NULL,NULL,180,NULL,NULL,NULL,NULL,14900,60,NULL,"Super Cade Bosa","cl 49 sur # 5n - 88",ABANDONADO,1609459264666,"2021-01-01 00:01:04",NULL,11001,NULL,NULL,NULL,4.554716847134448,4.59698,-74.11531381309032,-74.16754,EFECTIVO,NULL,APP,NULL,NULL,0,NORMAL,TIEMPO_RUTA,NORMAL,0,9232560,NULL,NULL,NULL,NULL,NULL,"cl 49 sur # 5 n - par",NULL,"MARRUECOS II SECTOR",NULL,NULL,NULL,NULL,NULL,NULL,NULL,NULL,NULL,NULL,NULL,NULL
45691612,NULL,NULL,180,NULL,NULL,NULL,NULL,13100,60,NULL,"KR 73A # 75A - 43","cl 19a # 72",ABANDONADO,1609459264737,"2021-01-01 00:01:04",NULL,11001,NULL,NULL,NULL,4.651946743134821,4.692838542000061,-74.12634775042534,-74.09353477299993,EFECTIVO,NULL,APP,NULL,NULL,0,NORMAL,TIEMPO_RUTA,NORMAL,0,9368230,NULL,NULL,NULL,NULL,NULL,"cl 19 a # 72 - par",NULL,"LA FELICIDAD",NULL,NULL,NULL,NULL,NULL,NULL,NULL,NULL,NULL,NULL,NULL,NULL
45691613,NULL,NULL,180,NULL,NULL,NULL,NULL,6200,60,NULL,"KR 79A # 55 - 23 Sur","kr 77m # 60 - 40 sur",ABANDONADO,1609459264934,"2021-01-01 00:01:05",NULL,11001,NULL,NULL,NULL,4.60076583404556,4.6124646880000455,-74.17985279113054,-74.1733335269999,EFECTIVO,NULL,APP,NULL,NULL,0,NORMAL,TIEMPO_RUTA,NORMAL,0,9026617,NULL,NULL,NULL,NULL,NULL,"kr 77 m # 60 sur - par",NULL,"ANDALUCIA II",NULL,NULL,NULL,NULL,NULL,NULL,NULL,NULL,NULL,NULL,NULL,NULL
45691614,NULL,NULL,180,NULL,NULL,NULL,NULL,18100,60,NULL,"Calle 31 Sur 5A-27","cl 42b sur # 81l - 15",ABANDONADO,1609459264946,"2021-01-01 00:01:05",NULL,11001,NULL,NULL,NULL,4.627832839157236,4.56561,-74.16721355170012,-74.09856,EFECTIVO,NULL,APP,NULL,NULL,0,NORMAL,TIEMPO_RUTA,NORMAL,0,9397387,NULL,NULL,NULL,NULL,NULL,"cl 42 b sur # 81 l - impar",NULL,"EL AMPARO",NULL,NULL,NULL,NULL,NULL,NULL,NULL,NULL,NULL,NULL,NULL,NULL
45691615,NULL,NULL,180,NULL,NULL,NULL,NULL,21000,60,NULL,"Calle 84 Sur # 14C - 51","cl 7 # 37 - 45",ABANDONADO,1609459265730,"2021-01-01 00:01:05",NULL,11001,NULL,NULL,NULL,4.613339505784759,4.509430812000062,-74.1032525897026,-74.11739020099992,VALE,7188760,APP,NULL,NULL,0,NORMAL,TIEMPO_RUTA,NORMAL,0,8305228,NULL,NULL,NULL,NULL,NULL,"cl 7 # 37 - impar",NULL,"LOS EJIDOS",NULL,NULL,NULL,NULL,NULL,NULL,NULL,NULL,NULL,NULL,NULL,NULL
45691616,NULL,NULL,180,NULL,NULL,NULL,NULL,29800,60,NULL,"Colegio Cafam Los Naranjos","kr 114 # 148 - 30",ABANDONADO,1609459266870,"2021-01-01 00:01:07",NULL,11001,NULL,NULL,NULL,4.752084129848072,4.60837,-74.10129055380821,-74.19494,EFECTIVO,NULL,APP,NULL,NULL,0,NORMAL,TIEMPO_RUTA,NORMAL,0,4954099,NULL,NULL,NULL,NULL,NULL,"kr 114 # 148 - par",NULL,TIBABUYES,NULL,NULL,NULL,NULL,NULL,NULL,NULL,NULL,NULL,NULL,NULL,NULL
45691617,NULL,NULL,180,NULL,NULL,NULL,NULL,24300,60,NULL,"KR 116A # 81 - 84","kr 11 # 180a - 5",ABANDONADO,1609459268178,"2021-01-01 00:01:08",NULL,11001,NULL,NULL,NULL,4.756880123478599,4.725959476000071,-74.03364926576614,-74.12059767699992,EFECTIVO,NULL,APP,NULL,NULL,2000,NORMAL,TIEMPO_RUTA,NORMAL,0,4447853,NULL,NULL,NULL,NULL,NULL,"kr 11 # 180 a - impar",NULL,"SAN JOSE DE USAQUEN",NULL,NULL,NULL,NULL,NULL,NULL,NULL,NULL,NULL,NULL,NULL,NULL
45691618,NULL,NULL,180,NULL,NULL,NULL,NULL,18100,60,NULL,"Calle 31 Sur 5A-27","cl 42b sur # 81l - 15",ABANDONADO,1609459268344,"2021-01-01 00:01:08",NULL,11001,NULL,NULL,NULL,4.627832839157236,4.56561,-74.16721355170012,-74.09856,EFECTIVO,NULL,APP,NULL,NULL,0,NORMAL,TIEMPO_RUTA,NORMAL,0,9397387,NULL,NULL,NULL,NULL,NULL,"cl 42 b sur # 81 l - impar",NULL,"EL AMPARO",NULL,NULL,NULL,NULL,NULL,NULL,NULL,NULL,NULL,NULL,NULL,NULL
45691619,NULL,NULL,180,NULL,NULL,NULL,NULL,16300,60,NULL,"kr 88c bis # 5a - 36 sur","calle 72a 72a-6",ABANDONADO,1609459269089,"2021-01-01 00:01:09",NULL,11001,NULL,NULL,NULL,4.68861,4.641748084870704,-74.09554,-74.16253946721554,EFECTIVO,NULL,APP,NULL,NULL,2000,NORMAL,TIEMPO_RUTA,NORMAL,0,9329285,NULL,NULL,NULL,NULL,NULL,"cl 72 a # 72 a - par",NULL,"SANTA MARIA",NULL,NULL,NULL,NULL,NULL,NULL,NULL,NULL,NULL,NULL,NULL,NULL
45691620,NULL,NULL,180,NULL,NULL,NULL,NULL,8500,60,NULL,"Arborizadora Alta","dg 49c sur # 13j - 52",ABANDONADO,1609459269386,"2021-01-01 00:01:09",NULL,11001,NULL,NULL,NULL,4.566269309765327,4.571933899999999,-74.12514645606278,-74.1555581,EFECTIVO,NULL,APP,NULL,NULL,1000,NORMAL,TIEMPO_RUTA,NORMAL,0,9397351,NULL,NULL,NULL,NULL,NULL,"dg 49 c sur # 13 j - par",NULL,"LA PLAYA",NULL,NULL,NULL,NULL,NULL,NULL,NULL,NULL,NULL,NULL,NULL,NULL
45691621,621,NULL,90,NULL,NULL,NULL,NULL,NULL,60,,NULL,"cra. 88 d 57 45 sur",ABANDONADO,1609459270239,"2021-01-01 00:01:10",NULL,11001,,NULL,CASA,4.62754846,NULL,-74.18870137,NULL,EFECTIVO,,RECEPCION,NULL,NULL,NULL,NORMAL,TIEMPO_RUTA,,0,8957176,NULL,8957176,NULL,NULL,NULL,"kr 88 d # 57 sur - impar",NULL,"LA LIBERTAD",NULL,NULL,NULL,NULL,NULL,NULL,NULL,NULL,NULL,NULL,NULL,NULL
45691622,NULL,NULL,180,NULL,NULL,NULL,NULL,6000,60,NULL,"Calle 74B 69-40","cl 63c # 69j - 29",ABANDONADO,1609459270272,"2021-01-01 00:01:10",NULL,11001,NULL,NULL,NULL,4.6716770920000386,4.68359,-74.09853514699995,-74.08655,EFECTIVO,NULL,APP,NULL,NULL,0,NORMAL,TIEMPO_RUTA,NORMAL,0,9020827,NULL,NULL,NULL,NULL,NULL,"cl 63 c # 69 j - impar",NULL,"BOSQUE POPULAR",NULL,NULL,NULL,NULL,NULL,NULL,NULL,NULL,NULL,NULL,NULL,NULL
45691623,NULL,NULL,180,NULL,NULL,NULL,NULL,9300,60,NULL,"CL 25 # 69 - 38","cl 74b # 68g - 14",ABANDONADO,1609459270243,"2021-01-01 00:01:10",NULL,11001,NULL,NULL,NULL,4.68206064399429,4.657160120000071,-74.08535990864038,-74.10850451899996,EFECTIVO,NULL,APP,NULL,NULL,0,NORMAL,TIEMPO_RUTA,NORMAL,0,8966551,NULL,NULL,NULL,NULL,NULL,"cl 74 b # 68 g - par",NULL,"LAS FERIAS",NULL,NULL,NULL,NULL,NULL,NULL,NULL,NULL,NULL,NULL,NULL,NULL
45691624,NULL,NULL,180,NULL,NULL,NULL,NULL,33500,60,NULL,"CL 173 # 18 - 60","kr 79g # 36 - 80 sur",ABANDONADO,1609459270904,"2021-01-01 00:01:11",NULL,11001,NULL,NULL,NULL,4.628184065466552,4.753318023000077,-74.15686693042517,-74.0407428499999,EFECTIVO,NULL,APP,NULL,NULL,0,NORMAL,TIEMPO_RUTA,PREMIUM,0,9276532,NULL,NULL,NULL,NULL,NULL,"kr 79 g # 36 sur - par",NULL,"CIUDAD KENNEDY NORTE",NULL,NULL,NULL,NULL,NULL,NULL,NULL,NULL,NULL,NULL,NULL,NULL
45691625,NULL,NULL,180,NULL,NULL,NULL,NULL,13500,60,NULL,"KR 110A BIS # 20C - 28","cl 24a # 56 - 35",ABANDONADO,1609459270938,"2021-01-01 00:01:11",NULL,11001,NULL,NULL,NULL,4.642514016948803,4.6826206700000625,-74.09964166581629,-74.14772115799991,EFECTIVO,NULL,APP,NULL,NULL,0,NORMAL,TIEMPO_RUTA,NORMAL,0,8444438,NULL,NULL,NULL,NULL,NULL,"cl 24 a # 56 - impar",NULL,"CIUDAD SALITRE NOR-ORIENTAL",NULL,NULL,NULL,NULL,NULL,NULL,NULL,NULL,NULL,NULL,NULL,NULL
45691626,NULL,NULL,180,NULL,NULL,NULL,NULL,23300,60,NULL,"Centro Comercial Metrópolis","cl 58a sur # 17a - 2",ABANDONADO,1609459270994,"2021-01-01 00:01:11",NULL,11001,NULL,NULL,NULL,4.562603663915889,4.68075,-74.13322493433952,-74.08242,EFECTIVO,NULL,APP,NULL,NULL,0,NORMAL,TIEMPO_RUTA,NORMAL,0,3474093,NULL,NULL,NULL,NULL,NULL,"cl 58 a sur # 17 a - par",NULL,"SAN BENITO",NULL,NULL,NULL,NULL,NULL,NULL,NULL,NULL,NULL,NULL,NULL,NULL
45691627,NULL,NULL,180,NULL,NULL,NULL,NULL,5800,60,NULL,"kr 81j # 57c - 20 sur","cl 67 sur # 86g - 18",ABANDONADO,1609459271696,"2021-01-01 00:01:11",NULL,11001,NULL,NULL,NULL,4.619985174871092,4.616361998000059,-74.19205080717802,-74.1817311719999,EFECTIVO,NULL,APP,NULL,NULL,0,NORMAL,TIEMPO_RUTA,NORMAL,0,9337948,NULL,NULL,NULL,NULL,NULL,"cl 67 sur # 86 g - par",NULL,"SAN PEDRO",NULL,NULL,NULL,NULL,NULL,NULL,NULL,NULL,NULL,NULL,NULL,NULL
45691628,NULL,NULL,180,NULL,NULL,NULL,NULL,15200,60,NULL,"Estación de Bomberos Garces Navas-Bogotá","cl 154a # 94 - 54",ABANDONADO,1609459271874,"2021-01-01 00:01:12",NULL,11001,NULL,NULL,NULL,4.751817913000082,4.71418,-74.08338383999995,-74.12079,EFECTIVO,NULL,APP,NULL,NULL,0,NORMAL,TIEMPO_RUTA,NORMAL,0,9374681,NULL,NULL,NULL,NULL,NULL,"cl 154 a # 94 - par",NULL,"SALITRE I",NULL,NULL,NULL,NULL,NULL,NULL,NULL,NULL,NULL,NULL,NULL,NULL
45691629,NULL,NULL,90,NULL,NULL,NULL,NULL,NULL,60,,NULL,"cra. 79 # 128 - 67",ABANDONADO,1609459272139,"2021-01-01 00:01:12",NULL,11001,17089099,NULL,"CONJ LINDARAJA UNIDAD 6 APT 302",4.7166981,NULL,-74.0806105,NULL,EFECTIVO,NULL,IVR,NULL,NULL,NULL,NORMAL,TIEMPO_RUTA,NORMAL,0,4644487,NULL,4644487,NULL,NULL,NULL,"kr 79 # 128 - impar",NULL,"NIZA SUBA",NULL,NULL,NULL,NULL,NULL,NULL,NULL,NULL,NULL,NULL,NULL,NULL
45691630,NULL,NULL,180,NULL,NULL,NULL,NULL,5800,60,NULL,"Cai Altamira","cl 38 sur # 4 - 93 este",ABANDONADO,1609459272734,"2021-01-01 00:01:12",NULL,11001,NULL,NULL,NULL,4.551793108177344,4.537,-74.09093756228685,-74.08613,EFECTIVO,NULL,APP,NULL,NULL,4000,NORMAL,TIEMPO_RUTA,NORMAL,0,9188170,NULL,NULL,NULL,NULL,NULL,"cl 38 sur # 4 este - impar",NULL,"LA VICTORIA",NULL,NULL,NULL,NULL,NULL,NULL,NULL,NULL,NULL,NULL,NULL,NULL
45691631,150,110590,90,NULL,NULL,151784657236365787766,...,NULL,60,,NULL,"cl. 23 12 32",FINALIZADO,1609459272876,"2021-01-01 00:01:12",NULL,11001,17089068,NULL,"APTO   202",4.61021611,NULL,-74.07255704,NULL,EFECTIVO,,RECEPCION,TEP734,NULL,NULL,NORMAL,TIEMPO_RUTA,,0,9350000,NULL,9350000,151784657236365787766,NULL,NULL,"cl 23 # 12 - par",NULL,"LA ALAMEDA",NULL,NULL,NULL,NULL,NULL,NULL,NULL,NULL,NULL,NULL,NULL,NULL
45691632,NULL,NULL,180,NULL,NULL,NULL,NULL,9800,60,NULL,"Timiza, Bogotá, Colombia","ac 8 # 94 - 2",ABANDONADO,1609459273936,"2021-01-01 00:01:14",NULL,11001,NULL,NULL,NULL,4.654431639108054,4.6155104,-74.15723204612732,-74.1540902,EFECTIVO,NULL,APP,NULL,NULL,0,NORMAL,TIEMPO_RUTA,NORMAL,0,8262616,NULL,NULL,NULL,NULL,NULL,"ac 8 # 94 - par",NULL,"CAMPO ALEGRE",NULL,NULL,NULL,NULL,NULL,NULL,NULL,NULL,NULL,NULL,NULL,NULL
45691633,NULL,NULL,180,NULL,NULL,NULL,NULL,21000,60,NULL,"kr 78a # 42b - 33 sur","kr 94h # 84 - 47",ABANDONADO,1609459274068,"2021-01-01 00:01:14",NULL,11001,NULL,NULL,NULL,4.7106943306901155,4.6129087,-74.10309132188559,-74.159402,EFECTIVO,NULL,APP,NULL,NULL,5000,NORMAL,TIEMPO_RUTA,NORMAL,0,9170115,NULL,NULL,NULL,NULL,NULL,"kr 94 h # 84 - impar",NULL,"CIUDAD QUIRIGUA",NULL,NULL,NULL,NULL,NULL,NULL,NULL,NULL,NULL,NULL,NULL,NULL
45691634,NULL,NULL,180,NULL,NULL,NULL,NULL,19300,60,NULL,"La Independencia","kr 20 # 10 - 15 sur",CANCELADO,1609459275018,"2021-01-01 00:01:15",NULL,11001,NULL,NULL,NULL,4.589867959794437,4.62079,-74.0981402993202,-74.19606,EFECTIVO,NULL,APP,NULL,NULL,3000,NORMAL,TIEMPO_RUTA,NORMAL,0,9397276,NULL,NULL,NULL,NULL,"USU|AppUsuario|Antes de asignacion","kr 20 # 10 sur - impar",NULL,LUNAPARK,NULL,NULL,NULL,NULL,NULL,NULL,NULL,NULL,NULL,NULL,NULL,NULL
45691635,NULL,NULL,180,NULL,NULL,NULL,NULL,NULL,60,NULL,"Cai La Candelaria","cl 54 # 7 - 19",ABANDONADO,1609459275168,"2021-01-01 00:01:15",NULL,11001,NULL,NULL,NULL,4.594211555818359,4.57334,-74.1907325014472,-74.15323,EFECTIVO,NULL,APP,NULL,NULL,4000,NORMAL,TIEMPO_RUTA,NORMAL,0,9041343,NULL,NULL,NULL,NULL,NULL,"cl 54 # 7 - impar",NULL,"CHAPINERO CENTRAL",NULL,NULL,NULL,NULL,NULL,NULL,NULL,NULL,NULL,NULL,NULL,NULL
45691636,NULL,NULL,180,NULL,NULL,NULL,NULL,18800,60,NULL,"Colegio Distrital San Cristóbal - Sede a","kr 78c # 13 - 51",ABANDONADO,1609459275470,"2021-01-01 00:01:15",NULL,11001,NULL,NULL,NULL,4.649627293000037,4.57019,-74.13374298199994,-74.07987,EFECTIVO,NULL,APP,NULL,NULL,0,NORMAL,TIEMPO_RUTA,NORMAL,0,9231783,NULL,NULL,NULL,NULL,NULL,"kr 78 c # 13 - impar",NULL,"VISION DE COLOMBIA",NULL,NULL,NULL,NULL,NULL,NULL,NULL,NULL,NULL,NULL,NULL,NULL
45691637,NULL,NULL,180,NULL,NULL,NULL,NULL,4800,60,NULL,"Sendero de Paz","kr 18a bis # 58 - 20 sur",ABANDONADO,1609459275601,"2021-01-01 00:01:15",NULL,11001,NULL,NULL,NULL,4.564042117983668,4.56771,-74.13397494703531,-74.12423,EFECTIVO,NULL,APP,NULL,NULL,0,NORMAL,TIEMPO_RUTA,NORMAL,0,4658128,NULL,NULL,NULL,NULL,NULL,"kr 18 a bis # 58 sur - par",NULL,"SAN BENITO",NULL,NULL,NULL,NULL,NULL,NULL,NULL,NULL,NULL,NULL,NULL,NULL
45691638,NULL,NULL,180,NULL,NULL,NULL,NULL,13400,60,NULL,"Madelena Urbano","cl 11 # 88a - 1",ABANDONADO,1609459275671,"2021-01-01 00:01:15",NULL,11001,NULL,NULL,NULL,4.653933056595803,4.59294,-74.14840757846832,-74.15757,EFECTIVO,NULL,APP,NULL,NULL,0,NORMAL,TIEMPO_RUTA,NORMAL,0,8770894,NULL,NULL,NULL,NULL,NULL,"cl 11 # 88 a - impar",NULL,"EL VERGEL OCCIDENTAL",NULL,NULL,NULL,NULL,NULL,NULL,NULL,NULL,NULL,NULL,NULL,NULL
45691639,NULL,NULL,180,NULL,NULL,NULL,NULL,25000,60,NULL,"calle 58q sur # 78 - 39","kr 118 # 76a - 11",ABANDONADO,1609459276571,"2021-01-01 00:01:16",NULL,11001,NULL,NULL,NULL,4.7203446646810425,4.602468080000051,-74.13047667592762,-74.17859310599994,EFECTIVO,NULL,APP,NULL,NULL,0,NORMAL,TIEMPO_RUTA,NORMAL,0,9045255,NULL,NULL,NULL,NULL,NULL,"kr 118 # 76 a - impar",NULL,"CENTRO ENGATIVA",NULL,NULL,NULL,NULL,NULL,NULL,NULL,NULL,NULL,NULL,NULL,NULL
45691640,NULL,167330,180,NULL,NULL,158561589785184264358,...,18200,60,NULL,"CL 78 Sur # 18B - 44","ac 17 # 72 - 12",CANCELADO,1609459277553,"2021-01-01 00:01:17",NULL,11001,NULL,NULL,NULL,4.650449986742381,4.5397470982670685,-74.12802211940289,-74.14390549063681,EFECTIVO,NULL,APP,VEJ438,NULL,3000,NORMAL,TIEMPO_RUTA,NORMAL,0,9337082,NULL,NULL,158561589785184264358,NULL,"CON|Usuario No Responde Msg","ac 17 # 72 - par",NULL,"LA FELICIDAD",NULL,NULL,NULL,NULL,NULL,NULL,NULL,NULL,NULL,NULL,NULL,NULL
45691641,NULL,NULL,180,NULL,NULL,NULL,NULL,6600,60,NULL,"Diagonal 71B Sur # 18J - 13","kr 19b bis # 60a - 26 sur",ABANDONADO,1609459277658,"2021-01-01 00:01:17",NULL,11001,NULL,NULL,NULL,4.562198262655458,4.546580464000044,-74.14038207381964,-74.14983749299995,EFECTIVO,NULL,APP,NULL,NULL,0,NORMAL,TIEMPO_RUTA,NORMAL,0,8602371,NULL,NULL,NULL,NULL,NULL,"kr 19 b bis # 60 a sur - par",NULL,"LA ACASIA SUR",NULL,NULL,NULL,NULL,NULL,NULL,NULL,NULL,NULL,NULL,NULL,NULL
45691642,NULL,NULL,180,NULL,NULL,NULL,NULL,4800,60,NULL,"KR 18Z # 68D - 33 Sur","tv 20d bis a # 68l - 10 sur",ABANDONADO,1609459278426,"2021-01-01 00:01:18",NULL,11001,NULL,NULL,NULL,4.562844297696745,4.557576299000062,-74.1537545621395,-74.15064109299993,EFECTIVO,NULL,APP,NULL,NULL,0,NORMAL,TIEMPO_RUTA,NORMAL,0,9030055,NULL,NULL,NULL,NULL,NULL,"tv 20 d bis a # 68 l sur - par",NULL,"JUAN JOSE RONDON",NULL,NULL,NULL,NULL,NULL,NULL,NULL,NULL,NULL,NULL,NULL,NULL
45691643,NULL,NULL,180,NULL,NULL,NULL,NULL,24400,60,NULL,"Transversal 1B Este 49B S-30","cl 2 # 93d - 30",ABANDONADO,1609459278544,"2021-01-01 00:01:18",NULL,11001,NULL,NULL,NULL,4.649861508977487,4.54284,-74.16682999581099,-74.10709,EFECTIVO,NULL,APP,NULL,NULL,0,NORMAL,TIEMPO_RUTA,NORMAL,0,9234064,NULL,NULL,NULL,NULL,NULL,"cl 2 # 93 d - par",NULL,"LOS PANTANOS",NULL,NULL,NULL,NULL,NULL,NULL,NULL,NULL,NULL,NULL,NULL,NULL
45691644,NULL,NULL,180,NULL,NULL,NULL,NULL,7200,60,NULL,"Calle 128 # 104A - 11","kr 102 # 153 - 27",ABANDONADO,1609459279069,"2021-01-01 00:01:19",NULL,11001,NULL,NULL,NULL,4.754134583000052,4.728730429000052,-74.08982151299995,-74.10195332899991,EFECTIVO,NULL,APP,NULL,NULL,0,NORMAL,TIEMPO_RUTA,NORMAL,0,9218067,NULL,NULL,NULL,NULL,NULL,"kr 102 # 153 - impar",NULL,"EL SALITRE",NULL,NULL,NULL,NULL,NULL,NULL,NULL,NULL,NULL,NULL,NULL,NULL
45691645,NULL,NULL,180,NULL,NULL,NULL,NULL,12800,60,NULL,"CL 49 Sur # 89B - 73","cl 7a bis a # 72 - 36",CANCELADO,1609459279177,"2021-01-01 00:01:19",NULL,11001,NULL,NULL,NULL,4.633949699452226,4.635757586000068,-74.1387227922678,-74.18179653999994,EFECTIVO,NULL,APP,NULL,NULL,0,NORMAL,TIEMPO_RUTA,PREMIUM,0,8791079,NULL,NULL,NULL,NULL,"USU|AppUsuario|Ya no necesito el Taxi","cl 7 a bis a # 72 - par",NULL,"LAS DOS AVENIDAS II ETAPA",NULL,NULL,NULL,NULL,NULL,NULL,NULL,NULL,NULL,NULL,NULL,NULL
45691646,NULL,NULL,180,NULL,NULL,NULL,NULL,30700,60,NULL,"Avenida Carrera 60 67B-49","cl 79 sur # 8d - 50",ABANDONADO,1609459279448,"2021-01-01 00:01:19",NULL,11001,NULL,NULL,NULL,4.510129543800134,4.6705,-74.11205861717463,-74.08282,VALE,9949276,APP,NULL,NULL,0,NORMAL,TIEMPO_RUTA,NORMAL,0,9288368,NULL,NULL,NULL,NULL,NULL,"cl 79 sur # 8 d - par",NULL,"LA ANDREA",NULL,NULL,NULL,NULL,NULL,NULL,NULL,NULL,NULL,NULL,NULL,NULL
45691647,NULL,NULL,180,NULL,NULL,NULL,NULL,8400,60,NULL,"calle 69c sur # 17m - 24","kr 14v # 69a - 8 sur",ABANDONADO,1609459279686,"2021-01-01 00:01:19",NULL,11001,NULL,NULL,NULL,4.521553037750748,4.548448832000076,-74.12328466773033,-74.14189027599991,EFECTIVO,NULL,APP,NULL,NULL,0,NORMAL,TIEMPO_RUTA,NORMAL,0,9225468,NULL,NULL,NULL,NULL,NULL,"kr 14 v # 69 a sur - par",NULL,"LA AURORA",NULL,NULL,NULL,NULL,NULL,NULL,NULL,NULL,NULL,NULL,NULL,NULL
45691648,NULL,NULL,180,NULL,NULL,NULL,NULL,11300,60,NULL,"Barrio Ospina Perez","tv 5i bis # 49 - 55 sur",ABANDONADO,1609459280111,"2021-01-01 00:01:20",NULL,11001,NULL,NULL,NULL,4.552708866741726,4.599461270673844,-74.11189533770084,-74.12934156675072,EFECTIVO,NULL,APP,NULL,NULL,0,NORMAL,TIEMPO_RUTA,NORMAL,0,9008873,NULL,NULL,NULL,NULL,NULL,"tv 5 i bis # 49 sur - impar",NULL,"SIN BARRIO",NULL,NULL,NULL,NULL,NULL,NULL,NULL,NULL,NULL,NULL,NULL,NULL
45691649,NULL,NULL,180,NULL,NULL,NULL,NULL,9500,60,NULL,"KR 34A # 33 - 291","cl 81 sur # 96 - 24",ABANDONADO,1609459281043,"2021-01-01 00:01:21",NULL,11001,NULL,NULL,NULL,4.629205996020269,4.608905460451639,-74.20949555933475,-74.21270113438366,EFECTIVO,NULL,APP,NULL,NULL,2000,NORMAL,TIEMPO_RUTA,NORMAL,0,9100634,NULL,NULL,NULL,NULL,NULL,"cl 81 sur # 96 - par",NULL,"EL REMANSO",NULL,NULL,NULL,NULL,NULL,NULL,NULL,NULL,NULL,NULL,NULL,NULL
45691650,NULL,NULL,90,NULL,NULL,NULL,NULL,NULL,60,,NULL,"cl. 150 a 96 a 71",ABANDONADO,1609459281045,"2021-01-01 00:01:21",NULL,11001,17089101,NULL,"APT  901  TORRE  43  // PORTERIA",4.74718792,NULL,-74.08769715,NULL,EFECTIVO,NULL,IVR,NULL,NULL,NULL,NORMAL,TIEMPO_RUTA,NORMAL,0,4567068,NULL,4567068,NULL,NULL,NULL,"cl 150 a # 96 a - impar",NULL,"BOSQUES DE SAN JORGE",NULL,NULL,NULL,NULL,NULL,NULL,NULL,NULL,NULL,NULL,NULL,NULL
45691651,NULL,NULL,180,NULL,NULL,NULL,NULL,7300,60,NULL,"Barrio Techo","kr 68g # 9c - 51",ABANDONADO,1609459281488,"2021-01-01 00:01:21",NULL,11001,NULL,NULL,NULL,4.635129020290151,4.626893399732879,-74.12539288401604,-74.14743547290823,EFECTIVO,NULL,APP,NULL,NULL,0,NORMAL,TIEMPO_RUTA,NORMAL,0,9375684,NULL,NULL,NULL,NULL,NULL,"kr 68 g # 9 c - impar",NULL,"EL CONDADO DE LA PAZ",NULL,NULL,NULL,NULL,NULL,NULL,NULL,NULL,NULL,NULL,NULL,NULL
45691652,NULL,NULL,180,NULL,NULL,NULL,NULL,NULL,60,NULL,NULL,"kr 5a # 5b - 78 sur",ABANDONADO,1609459281549,"2021-01-01 00:01:21",NULL,11001,NULL,NULL,NULL,4.5810699,NULL,-74.0830191,NULL,EFECTIVO,NULL,APP,NULL,NULL,0,NORMAL,TIEMPO_RUTA,NORMAL,0,8477875,NULL,NULL,NULL,NULL,NULL,"kr 5 a # 5 b sur - par",NULL,"CAMINO VIEJO DE SAN CRISTOBAL",NULL,NULL,NULL,NULL,NULL,NULL,NULL,NULL,NULL,NULL,NULL,NULL
45691653,NULL,NULL,180,NULL,NULL,NULL,NULL,22800,60,NULL,"La Libertad","kr 68b # 74a - 26",ABANDONADO,1609459281786,"2021-01-01 00:01:21",NULL,11001,NULL,NULL,NULL,4.680232466973405,4.62582,-74.08497333526611,-74.19149,EFECTIVO,NULL,APP,NULL,NULL,0,NORMAL,TIEMPO_RUTA,NORMAL,0,9277215,NULL,NULL,NULL,NULL,NULL,"kr 68 b # 74 a - par",NULL,METROPOLIS,NULL,NULL,NULL,NULL,NULL,NULL,NULL,NULL,NULL,NULL,NULL,NULL
45691654,NULL,NULL,90,NULL,NULL,NULL,NULL,NULL,32,NULL,"CR 67B # 33B 06","cr 67b # 33b 06",ABANDONADO,1609459282509,"2021-01-01 00:01:22",NULL,76001,NULL,NULL,NULL,3.39692582,3.39692582,-76.52065721,-76.52065721,EFECTIVO,NULL,I.V.R.,NULL,NULL,0,NORMAL,TIEMPO_RUTA,NORMAL,0,7931581,NULL,NULL,NULL,NULL,NULL,"kr 67 b # 33 b - par",NULL,"CIUDAD 2000",NULL,NULL,NULL,NULL,NULL,NULL,NULL,NULL,NULL,NULL,NULL,NULL
45691655,NULL,NULL,22,NULL,NULL,NULL,NULL,NULL,60,NULL,"Animal King Pet Shop","cl 16 # 39 - 96",ABANDONADO,1609459283387,"2021-01-01 00:01:23",NULL,25754,NULL,NULL,NULL,4.6125905858408505,4.58331,-74.22438651323318,-74.21238,EFECTIVO,NULL,APP,NULL,NULL,1000,NORMAL,TIEMPO_RUTA,NORMAL,0,8752199,NULL,NULL,NULL,NULL,NULL,"cl 16 # 39 - par",NULL,"SIN BARRIO",NULL,NULL,NULL,NULL,NULL,NULL,NULL,NULL,NULL,NULL,NULL,NULL
45691656,NULL,NULL,180,NULL,NULL,NULL,NULL,9300,60,NULL,"Carrera 72B 9-96","cl 63f # 73 - 35",ABANDONADO,1609459283942,"2021-01-01 00:01:24",NULL,11001,NULL,NULL,NULL,4.676951360103374,4.64085,-74.1043009981513,-74.13649,EFECTIVO,NULL,APP,NULL,NULL,3000,NORMAL,TIEMPO_RUTA,NORMAL,0,8952499,NULL,NULL,NULL,NULL,NULL,"cl 63 f # 73 - impar",NULL,"EL ENCANTO",NULL,NULL,NULL,NULL,NULL,NULL,NULL,NULL,NULL,NULL,NULL,NULL
45691657,NULL,NULL,180,NULL,NULL,NULL,NULL,8700,60,NULL,"CL 14A Sur # 18 - 50","cl 11 # 2 - 72",ABANDONADO,1609459284080,"2021-01-01 00:01:24",NULL,11001,NULL,NULL,NULL,4.596144559499504,4.58713199400006,-74.07120153307915,-74.09938769799993,EFECTIVO,NULL,APP,NULL,NULL,0,NORMAL,TIEMPO_RUTA,NORMAL,0,8959113,NULL,NULL,NULL,NULL,NULL,"cl 11 # 2 - par",NULL,EGIPTO,NULL,NULL,NULL,NULL,NULL,NULL,NULL,NULL,NULL,NULL,NULL,NULL
45691658,NULL,NULL,180,NULL,NULL,NULL,NULL,24400,60,NULL,"Carrera 83 # 42F - 84 Sur","cl 72 # 10 - 34",ABANDONADO,1609459284675,"2021-01-01 00:01:24",NULL,11001,NULL,NULL,NULL,4.657120703711491,4.628034765000052,-74.05780456960201,-74.16937352899993,TARJETA,NULL,APP,NULL,NULL,0,NORMAL,TIEMPO_RUTA,NORMAL,0,9083706,NULL,NULL,NULL,NULL,NULL,"cl 72 # 10 - par",NULL,"LA PORCIUNCULA",NULL,NULL,NULL,NULL,NULL,NULL,NULL,NULL,NULL,NULL,NULL,NULL
45691659,NULL,NULL,90,NULL,NULL,NULL,NULL,NULL,60,NULL,NULL,"kr 1a # cl 22a sur ",ABANDONADO,1609459285382,"2021-01-01 00:01:25",NULL,11001,NULL,NULL,NULL,4.5697779,NULL,-74.0883127,NULL,EFECTIVO,NULL,CHAT_BOT,NULL,NULL,NULL,NORMAL,TIEMPO_RUTA,NORMAL,0,9354670,NULL,NULL,NULL,NULL,NULL,"kr 1 a # 22 a sur - par",NULL,"GRANADA SUR",NULL,NULL,NULL,NULL,NULL,NULL,NULL,NULL,NULL,NULL,NULL,NULL
